EST: 2024-12-10 19:35:05 $GPRMC,003501.00,V,,,,,,,,,,N*7A
EST: 2024-12-10 19:35:05 $GPVTG,,,,,,,,,N*30
EST: 2024-12-10 19:35:05 $GPGGA,003501.00,,,,,0,00,99.99,,,,,,*61
EST: 2024-12-10 19:35:05 $GPGSA,A,1,,,,,,,,,,,,,99.99,99.99,99.99*30
EST: 2024-12-10 19:35:05 $GPGSV,2,1,05,14,,,36,17,,,40,19,,,36,22,,,40*74
EST: 2024-12-10 19:35:05 $GPGSV,2,2,05,48,,,40*74
EST: 2024-12-10 19:35:05 $GPGLL,,,,,003501.00,V,N*4D
EST: 2024-12-10 19:35:05 $GPTXT,01,01,02,u-blox ag - www.u-blox.com*50
EST: 2024-12-10 19:35:05 $GPTXT,01,01,02,HW  UBX-G70xx   00070000 FF7FFFFFo*69
EST: 2024-12-10 19:35:05 $GPTXT,01,01,02,ROM CORE 1.00 (59842) Jun 27 2012 17:43:52*59
EST: 2024-12-10 19:35:05 $GPTXT,01,01,02,PROTVER 14.00*1E
EST: 2024-12-10 19:35:05 $GPTXT,01,01,02,ANTSUPERV=AC SD PDoS SR*20
EST: 2024-12-10 19:35:05 $GPTXT,01,01,02,ANTSTATUS=OK*3B
EST: 2024-12-10 19:35:05 $GPTXT,01,01,02,LLC FFFFFFFF-FFFFFFFF-FFFFFFFF-FFFFFFFF-FFFFFFFD*2C
EST: 2024-12-10 19:35:05 $GPRMC,003502.00,V,,,,,,,,,,N*79
EST: 2024-12-10 19:35:05 $GPVTG,,,,,,,,,N*30
EST: 2024-12-10 19:35:05 $GPGGA,003502.00,,,,,0,00,99.99,,,,,,*62
EST: 2024-12-10 19:35:05 $GPGSA,A,1,,,,,,,,,,,,,99.99,99.99,99.99*30
EST: 2024-12-10 19:35:05 $GPGSV,2,1,05,14,,,36,17,,,39,19,,,36,22,,,41*7B
EST: 2024-12-10 19:35:05 $GPGSV,2,2,05,48,,,40*74
EST: 2024-12-10 19:35:05 $GPGLL,,,,,003502.00,V,N*4E
EST: 2024-12-10 19:35:05 $GPRMC,003503.00,V,,,,,,,,,,N*78
EST: 2024-12-10 19:35:05 $GPVTG,,,,,,,,,N*30
EST: 2024-12-10 19:35:05 $GPGGA,003503.00,,,,,0,00,99.99,,,,,,*63
EST: 2024-12-10 19:35:05 $GPGSA,A,1,,,,,,,,,,,,,99.99,99.99,99.99*30
EST: 2024-12-10 19:35:05 $GPGSV,2,1,06,03,,,28,14,,,36,17,,,40,19,,,36*7A
EST: 2024-12-10 19:35:05 $GPGSV,2,2,06,22,,,41,48,,,40*72
EST: 2024-12-10 19:35:05 $GPGLL,,,,,003503.00,V,N*4F
EST: 2024-12-10 19:35:05 $GPRMC,003504.00,V,,,,,,,,,,N*7F
EST: 2024-12-10 19:35:05 $GPVTG,,,,,,,,,N*30
EST: 2024-12-10 19:35:05 $GPGGA,003504.00,,,,,0,00,99.99,,,,,,*64
EST: 2024-12-10 19:35:05 $GPGSA,A,1,,,,,,,,,,,,,99.99,99.99,99.99*30
EST: 2024-12-10 19:35:05 $GPGSV,2,1,06,03,,,25,14,,,33,17,,,39,19,,,39*73
EST: 2024-12-10 19:35:05 $GPGSV,2,2,06,22,,,38,48,,,40*7C
EST: 2024-12-10 19:35:05 $GPGLL,,,,,003504.00,V,N*48
EST: 2024-12-10 19:35:05 $GPRMC,003505.00,V,,,,,,,,,,N*7E
EST: 2024-12-10 19:35:05 $GPVTG,,,,,,,,,N*30
EST: 2024-12-10 19:35:05 $GPGGA,003505.00,,,,,0,00,99.99,,,,,,*65
EST: 2024-12-10 19:35:05 $GPGSA,A,1,,,,,,,,,,,,,99.99,99.99,99.99*30
EST: 2024-12-10 19:35:05 $GPGSV,2,1,07,02,,,25,03,,,23,14,,,34,17,,,40*7A
EST: 2024-12-10 19:35:05 $GPGSV,2,2,07,19,,,40,22,,,39,48,,,39*7E
EST: 2024-12-10 19:35:05 $GPGLL,,,,,003505.00,V,N*49
EST: 2024-12-10 19:35:05 $GPRMC,003506.00,V,,,,,,,,,,N*7D
EST: 2024-12-10 19:35:05 $GPVTG,,,,,,,,,N*30
EST: 2024-12-10 19:35:05 $GPGGA,003506.00,,,,,0,00,99.99,,,,,,*66
EST: 2024-12-10 19:35:05 $GPGSA,A,1,,,,,,,,,,,,,99.99,99.99,99.99*30
EST: 2024-12-10 19:35:05 $GPGSV,2,1,08,02,,,23,03,,,21,04,,,27,14,,,33*75
EST: 2024-12-10 19:35:05 $GPGSV,2,2,08,17,,,40,19,,,40,22,,,39,48,,,39*73
EST: 2024-12-10 19:35:05 $GPGLL,,,,,003506.00,V,N*4A
EST: 2024-12-10 19:35:05 $GPRMC,003507.00,V,,,,,,,,,,N*7C
EST: 2024-12-10 19:35:05 $GPVTG,,,,,,,,,N*30
EST: 2024-12-10 19:35:05 $GPGGA,003507.00,,,,,0,00,99.99,,,,,,*67
EST: 2024-12-10 19:35:05 $GPGSA,A,1,,,,,,,,,,,,,99.99,99.99,99.99*30
EST: 2024-12-10 19:35:05 $GPGSV,2,1,08,02,,,22,
EST: 2024-12-10 19:35:12 03,,,19,04,,,27,14,,,33*7F
EST: 2024-12-10 19:35:12 $GPGSV,2,2,08,17,,,40,19,,,40,22,,,39,48,,,38*72
EST: 2024-12-10 19:35:12 $GPGLL,,,,,003507.00,V,N*4B
EST: 2024-12-10 19:35:12 $GPRMC,003508.00,V,,,,,,,,,,N*73
EST: 2024-12-10 19:35:12 $GPVTG,,,,,,,,,N*30
EST: 2024-12-10 19:35:12 $GPGGA,003508.00,,,,,0,00,99.99,,,,,,*68
EST: 2024-12-10 19:35:12 $GPGSA,A,1,,,,,,,,,,,,,99.99,99.99,99.99*30
EST: 2024-12-10 19:35:12 $GPGSV,2,1,08,02,,,25,03,,,15,04,,,27,14,,,33*74
EST: 2024-12-10 19:35:12 $GPGSV,2,2,08,17,,,39,19,,,40,22,,,38,48,,,38*7D
EST: 2024-12-10 19:35:12 $GPGLL,,,,,003508.00,V,N*44
EST: 2024-12-10 19:35:12 $GPRMC,003509.00,V,,,,,,,,,,N*72
EST: 2024-12-10 19:35:12 $GPVTG,,,,,,,,,N*30
EST: 2024-12-10 19:35:12 $GPGGA,003509.00,,,,,0,00,99.99,,,,,,*69
EST: 2024-12-10 19:35:12 $GPGSA,A,1,,,,,,,,,,,,,99.99,99.99,99.99*30
EST: 2024-12-10 19:35:12 $GPGSV,2,1,08,02,,,23,04,,,26,06,,,36,14,,,34*70
EST: 2024-12-10 19:35:12 $GPGSV,2,2,08,17,,,39,19,,,40,22,,,38,48,,,38*7D
EST: 2024-12-10 19:35:12 $GPGLL,,,,,003509.00,V,N*45
EST: 2024-12-10 19:35:12 $GPRMC,003510.00,V,,,,,,,,,,N*7A
EST: 2024-12-10 19:35:12 $GPVTG,,,,,,,,,N*30
EST: 2024-12-10 19:35:12 $GPGGA,003510.00,,,,,0,00,99.99,,,,,,*61
EST: 2024-12-10 19:35:12 $GPGSA,A,1,,,,,,,,,,,,,99.99,99.99,99.99*30
EST: 2024-12-10 19:35:12 $GPGSV,2,1,07,04,,,26,06,,,36,14,,,33,17,,,39*77
EST: 2024-12-10 19:35:12 $GPGSV,2,2,07,19,,,41,22,,,39,48,,,38*7E
EST: 2024-12-10 19:35:12 $GPGLL,,,,,003510.00,V,N*4D
EST: 2024-12-10 19:35:12 $GPRMC,003511.00,V,,,,,,,,,,N*7B
EST: 2024-12-10 19:35:12 $GPVTG,,,,,,,,,N*30
EST: 2024-12-10 19:35:12 $GPGGA,003511.00,,,,,0,00,99.99,,,,,,*60
EST: 2024-12-10 19:35:12 $GPGSA,A,1,,,,,,,,,,,,,99.99,99.99,99.99*30
EST: 2024-12-10 19:35:12 $GPGSV,2,1,08,04,,,26,05,,,24,06,,,36,14,,,32*76
EST: 2024-12-10 19:35:12 $GPGSV,2,2,08,17,,,39,19,,,39,22,,,39,48,,,38*72
EST: 2024-12-10 19:35:12 $GPGLL,,,,,003511.00,V,N*4C
EST: 2024-12-10 19:35:12 $GPRMC,003512.00,V,,,,,,,,,,N*78
EST: 2024-12-10 19:35:12 $GPVTG,,,,,,,,,N*30
EST: 2024-12-10 19:35:12 $GPGGA,003512.00,,,,,0,00,99.99,,,,,,*63
EST: 2024-12-10 19:35:12 $GPGSA,A,1,,,,,,,,,,,,,99.99,99.99,99.99*30
EST: 2024-12-10 19:35:12 $GPGSV,3,1,09,04,,,27,05,,,23,06,,,36,08,,,26*78
EST: 2024-12-10 19:35:12 $GPGSV,3,2,09,14,,,33,17,,,40,19,,,39,22,,,39*7E
EST: 2024-12-10 19:35:12 $GPGSV,3,3,09,48,,,39*76
EST: 2024-12-10 19:35:12 $GPGLL,,,,,003512.00,V,N*4F
EST: 2024-12-10 19:35:12 $GPRMC,003513.00,V,,,,,,,,,,N*79
EST: 2024-12-10 19:35:12 $GPVTG,,,,,,,,,N*30
EST: 2024-12-10 19:35:12 $GPGGA,003513.00,,,,,0,00,99.99,,,,,,*62
EST: 2024-12-10 19:35:12 $GPGSA,A,1,,,,,,,,,,,,,99.99,99.99,99.99*30
EST: 2024-12-10 19:35:12 $GPGSV,3,1,10,04,,,27,05,,,22,06,,,37,07,,,21*78
EST: 2024-12-10 19:35:12 $GPGSV,3,2,10,08,,,25,14,,,33,17,,,40,19,,,39*73
EST: 2024-12-10 19:35:12 $GPGSV,3,3,10,22,,,40,48,,,41*75
EST: 2024-12-10 19:35:12 $GPGLL,,,,,003513.00,V,N*4E
EST: 2024-12-10 19:35:12 $GPRMC,003514.00,V,,,,,,,,,,N*7E
EST: 2024-12-10 19:35:12 $GPVTG,,,,,,,,,N*30
EST: 2024-12-10 19:35:12 $GPGGA,003514.00,,,,,0,00,99.99,,,,,,*65
EST: 2024-12-10 19:35:12 $GPGSA,A,1,,,,,,,,,,,,,99.99,99.99,99.99*30
EST: 2024-12-10 19:35:12 $GPGSV,3,1,09,04,,,27,05,,,21,06,,,37,08,,,21*7C
EST: 2024-12-10 19:35:12 $GPGSV,3,2,09,14,,,33,17,,,40,19,,,39,22,,,40*70
EST: 2024-12-10 19:35:12 $GPGSV,3,3,09,48,,,4
EST: 2024-12-10 19:35:19 0*78
EST: 2024-12-10 19:35:19 $GPGLL,,,,,003514.00,V,N*49
EST: 2024-12-10 19:35:19 $GPRMC,003515.00,V,,,,,,,,,,N*7F
EST: 2024-12-10 19:35:19 $GPVTG,,,,,,,,,N*30
EST: 2024-12-10 19:35:19 $GPGGA,003515.00,,,,,0,00,99.99,,,,,,*64
EST: 2024-12-10 19:35:19 $GPGSA,A,1,,,,,,,,,,,,,99.99,99.99,99.99*30
EST: 2024-12-10 19:35:19 $GPGSV,2,1,08,04,,,27,06,,,37,08,,,19,14,,,33*74
EST: 2024-12-10 19:35:19 $GPGSV,2,2,08,17,,,40,19,,,39,22,,,40,48,,,40*7D
EST: 2024-12-10 19:35:19 $GPGLL,,,,,003515.00,V,N*48
EST: 2024-12-10 19:35:19 $GPRMC,003516.00,V,,,,,,,111224,,,N*79
EST: 2024-12-10 19:35:19 $GPVTG,,,,,,,,,N*30
EST: 2024-12-10 19:35:19 $GPGGA,003516.00,,,,,0,00,99.99,,,,,,*67
EST: 2024-12-10 19:35:19 $GPGSA,A,1,,,,,,,,,,,,,99.99,99.99,99.99*30
EST: 2024-12-10 19:35:19 $GPGSV,3,1,09,03,,,33,04,,,27,06,,,37,07,,,24*73
EST: 2024-12-10 19:35:19 $GPGSV,3,2,09,14,,,33,17,,,40,19,,,39,22,,,39*7E
EST: 2024-12-10 19:35:19 $GPGSV,3,3,09,48,,,40*78
EST: 2024-12-10 19:35:19 $GPGLL,,,,,003516.00,V,N*4B
EST: 2024-12-10 19:35:19 $GPRMC,003517.00,V,,,,,,,111224,,,N*78
EST: 2024-12-10 19:35:19 $GPVTG,,,,,,,,,N*30
EST: 2024-12-10 19:35:19 $GPGGA,003517.00,,,,,0,00,99.99,,,,,,*66
EST: 2024-12-10 19:35:19 $GPGSA,A,1,,,,,,,,,,,,,99.99,99.99,99.99*30
EST: 2024-12-10 19:35:19 $GPGSV,3,1,10,03,,,33,04,,,26,06,,,37,07,,,23*7D
EST: 2024-12-10 19:35:19 $GPGSV,3,2,10,11,,,29,14,,,33,17,,,40,19,,,40*79
EST: 2024-12-10 19:35:19 $GPGSV,3,3,10,22,,,40,48,,,40*74
EST: 2024-12-10 19:35:19 $GPGLL,,,,,003517.00,V,N*4A
EST: 2024-12-10 19:35:19 $GPRMC,003518.00,V,,,,,,,111224,,,N*77
EST: 2024-12-10 19:35:19 $GPVTG,,,,,,,,,N*30
EST: 2024-12-10 19:35:19 $GPGGA,003518.00,,,,,0,00,99.99,,,,,,*69
EST: 2024-12-10 19:35:19 $GPGSA,A,1,,,,,,,,,,,,,99.99,99.99,99.99*30
EST: 2024-12-10 19:35:19 $GPGSV,3,1,10,03,,,33,04,,,26,06,,,38,07,,,22*73
EST: 2024-12-10 19:35:19 $GPGSV,3,2,10,10,,,23,14,,,33,17,,,40,19,,,40*72
EST: 2024-12-10 19:35:19 $GPGSV,3,3,10,22,,,40,48,,,39*7A
EST: 2024-12-10 19:35:19 $GPGLL,,,,,003518.00,V,N*45
EST: 2024-12-10 19:35:19 $GPRMC,003519.00,V,,,,,,,111224,,,N*76
EST: 2024-12-10 19:35:19 $GPVTG,,,,,,,,,N*30
EST: 2024-12-10 19:35:19 $GPGGA,003519.00,,,,,0,00,99.99,,,,,,*68
EST: 2024-12-10 19:35:19 $GPGSA,A,1,,,,,,,,,,,,,99.99,99.99,99.99*30
EST: 2024-12-10 19:35:19 $GPGSV,3,1,11,03,,,33,04,,,26,06,,,37,07,,,22*7D
EST: 2024-12-10 19:35:19 $GPGSV,3,2,11,10,,,20,12,,,26,14,,,33,17,,,40*7B
EST: 2024-12-10 19:35:19 $GPGSV,3,3,11,19,,,40,22,,,40,48,,,39*77
EST: 2024-12-10 19:35:19 $GPGLL,,,,,003519.00,V,N*44
EST: 2024-12-10 19:35:19 $GPRMC,003520.02,V,,,,,,,111224,,,N*7E
EST: 2024-12-10 19:35:19 $GPVTG,,,,,,,,,N*30
EST: 2024-12-10 19:35:19 $GPGGA,003520.02,,,,,0,00,99.99,,,,,,*60
EST: 2024-12-10 19:35:19 $GPGSA,A,1,,,,,,,,,,,,,99.99,99.99,99.99*30
EST: 2024-12-10 19:35:19 $GPGSV,3,1,12,03,,,33,04,,,25,06,,,37,07,,,19*75
EST: 2024-12-10 19:35:19 $GPGSV,3,2,12,10,,,22,12,,,24,14,,,33,17,,,40*78
EST: 2024-12-10 19:35:19 $GPGSV,3,3,12,19,,,40,22,,,40,30,,,33,48,,,40*79
EST: 2024-12-10 19:35:19 $GPGLL,,,,,003520.02,V,N*4C
EST: 2024-12-10 19:35:19 $GPRMC,003521.00,V,,,,,,,111224,,,N*7D
EST: 2024-12-10 19:35:19 $GPVTG,,,,,,,,,N*30
EST: 2024-12-10 19:35:19 $GPGGA,003521.00,,,,,0,00,99.99,,,,,,*63
EST: 2024-12-10 19:35:19 $GPGSA,A,1,,,,,,,,,,,,,99.99,99.99,99.99*30
EST: 2024-12-10 19:35:19 $GPGSV,3,1,12,03,,,33,
EST: 2024-12-10 19:35:25 04,,,26,06,,,37,12,,,22*7A
EST: 2024-12-10 19:35:25 $GPGSV,3,2,12,13,,,31,14,,,33,17,,,40,19,,,39*7E
EST: 2024-12-10 19:35:25 $GPGSV,3,3,12,22,,,40,30,,,33,46,,,37,48,,,40*73
EST: 2024-12-10 19:35:25 $GPGLL,,,,,003521.00,V,N*4F
EST: 2024-12-10 19:35:25 $GPRMC,003522.00,V,,,,,,,111224,,,N*7E
EST: 2024-12-10 19:35:25 $GPVTG,,,,,,,,,N*30
EST: 2024-12-10 19:35:25 $GPGGA,003522.00,,,,,0,00,99.99,,,,,,*60
EST: 2024-12-10 19:35:25 $GPGSA,A,1,,,,,,,,,,,,,99.99,99.99,99.99*30
EST: 2024-12-10 19:35:25 $GPGSV,3,1,12,03,,,33,04,,,25,06,,,37,10,,,23*7A
EST: 2024-12-10 19:35:25 $GPGSV,3,2,12,12,,,21,14,,,33,17,,,40,19,,,39*7E
EST: 2024-12-10 19:35:25 $GPGSV,3,3,12,22,,,40,30,,,33,46,,,37,48,,,40*73
EST: 2024-12-10 19:35:25 $GPGLL,,,,,003522.00,V,N*4C
EST: 2024-12-10 19:35:25 $GPRMC,003523.00,V,,,,,,,111224,,,N*7F
EST: 2024-12-10 19:35:25 $GPVTG,,,,,,,,,N*30
EST: 2024-12-10 19:35:25 $GPGGA,003523.00,,,,,0,00,99.99,,,,,,*61
EST: 2024-12-10 19:35:25 $GPGSA,A,1,,,,,,,,,,,,,99.99,99.99,99.99*30
EST: 2024-12-10 19:35:25 $GPGSV,3,1,12,03,,,32,04,,,25,06,,,37,10,,,22*7A
EST: 2024-12-10 19:35:25 $GPGSV,3,2,12,12,,,21,14,,,33,17,,,40,19,,,40*70
EST: 2024-12-10 19:35:25 $GPGSV,3,3,12,22,,,40,30,,,33,46,,,37,48,,,40*73
EST: 2024-12-10 19:35:25 $GPGLL,,,,,003523.00,V,N*4D
EST: 2024-12-10 19:35:25 $GPRMC,003524.00,V,,,,,,,111224,,,N*78
EST: 2024-12-10 19:35:25 $GPVTG,,,,,,,,,N*30
EST: 2024-12-10 19:35:25 $GPGGA,003524.00,,,,,0,00,99.99,,,,,,*66
EST: 2024-12-10 19:35:25 $GPGSA,A,1,,,,,,,,,,,,,99.99,99.99,99.99*30
EST: 2024-12-10 19:35:25 $GPGSV,4,1,14,03,,,33,04,,,25,06,,,37,10,,,22*7A
EST: 2024-12-10 19:35:25 $GPGSV,4,2,14,12,,,21,13,,,25,14,,,33,15,,,28*74
EST: 2024-12-10 19:35:25 $GPGSV,4,3,14,17,,,40,19,,,40,22,,,40,30,,,34*75
EST: 2024-12-10 19:35:25 $GPGSV,4,4,14,46,,,38,48,,,40*7D
EST: 2024-12-10 19:35:25 $GPGLL,,,,,003524.00,V,N*4A
EST: 2024-12-10 19:35:25 $GPRMC,003525.00,V,,,,,,,111224,,,N*79
EST: 2024-12-10 19:35:25 $GPVTG,,,,,,,,,N*30
EST: 2024-12-10 19:35:25 $GPGGA,003525.00,,,,,0,00,99.99,,,,,,*67
EST: 2024-12-10 19:35:25 $GPGSA,A,1,,,,,,,,,,,,,99.99,99.99,99.99*30
EST: 2024-12-10 19:35:25 $GPGSV,4,1,14,02,,,34,03,,,33,04,,,25,06,,,37*7E
EST: 2024-12-10 19:35:25 $GPGSV,4,2,14,10,,,21,12,,,21,13,,,22,14,,,33*7F
EST: 2024-12-10 19:35:25 $GPGSV,4,3,14,17,,,40,19,,,40,22,,,40,30,,,34*75
EST: 2024-12-10 19:35:25 $GPGSV,4,4,14,46,,,38,48,,,40*7D
EST: 2024-12-10 19:35:25 $GPGLL,,,,,003525.00,V,N*4B
EST: 2024-12-10 19:35:25 $GPRMC,003526.00,V,,,,,,,111224,,,N*7A
EST: 2024-12-10 19:35:25 $GPVTG,,,,,,,,,N*30
EST: 2024-12-10 19:35:25 $GPGGA,003526.00,,,,,0,00,99.99,,,,,,*64
EST: 2024-12-10 19:35:25 $GPGSA,A,1,,,,,,,,,,,,,99.99,99.99,99.99*30
EST: 2024-12-10 19:35:25 $GPGSV,3,1,12,02,,,34,03,,,33,04,,,25,06,,,36*7E
EST: 2024-12-10 19:35:25 $GPGSV,3,2,12,13,,,20,14,,,34,17,,,40,19,,,40*77
EST: 2024-12-10 19:35:25 $GPGSV,3,3,12,22,,,40,30,,,33,46,,,37,48,,,40*73
EST: 2024-12-10 19:35:25 $GPGLL,,,,,003526.00,V,N*48
EST: 2024-12-10 19:35:25 $GPRMC,003527.00,V,,,,,,,111224,,,N*7B
EST: 2024-12-10 19:35:25 $GPVTG,,,,,,,,,N*30
EST: 2024-12-10 19:35:25 $GPGGA,003527.00,,,,,0,00,99.99,,,,,,*65
EST: 2024-12-10 19:35:25 $GPGSA,A,1,,,,,,,,,,,,,99.99,99.99,99.99*30
EST: 2024-12-10 19:35:25 $GPGSV,3,1,12,02,,,33,03,,,33,04,,,25,0
EST: 2024-12-10 19:35:31 6,,,37*78
EST: 2024-12-10 19:35:31 $GPGSV,3,2,12,10,,,25,14,,,34,17,,,40,19,,,40*71
EST: 2024-12-10 19:35:31 $GPGSV,3,3,12,22,,,40,30,,,33,46,,,38,48,,,41*7D
EST: 2024-12-10 19:35:31 $GPGLL,,,,,003527.00,V,N*49
EST: 2024-12-10 19:35:31 $GPRMC,003528.00,V,,,,,,,111224,,,N*74
EST: 2024-12-10 19:35:31 $GPVTG,,,,,,,,,N*30
EST: 2024-12-10 19:35:31 $GPGGA,003528.00,,,,,0,00,99.99,,,,,,*6A
EST: 2024-12-10 19:35:31 $GPGSA,A,1,,,,,,,,,,,,,99.99,99.99,99.99*30
EST: 2024-12-10 19:35:31 $GPGSV,3,1,12,02,,,33,03,,,33,04,,,25,06,,,37*78
EST: 2024-12-10 19:35:31 $GPGSV,3,2,12,10,,,23,14,,,34,17,,,40,19,,,40*77
EST: 2024-12-10 19:35:31 $GPGSV,3,3,12,22,,,40,30,,,33,46,,,38,48,,,41*7D
EST: 2024-12-10 19:35:31 $GPGLL,,,,,003528.00,V,N*46
EST: 2024-12-10 19:35:31 $GPRMC,003529.00,V,,,,,,,111224,,,N*75
EST: 2024-12-10 19:35:31 $GPVTG,,,,,,,,,N*30
EST: 2024-12-10 19:35:31 $GPGGA,003529.00,,,,,0,00,99.99,,,,,,*6B
EST: 2024-12-10 19:35:31 $GPGSA,A,1,,,,,,,,,,,,,99.99,99.99,99.99*30
EST: 2024-12-10 19:35:31 $GPGSV,3,1,12,02,,,32,03,,,34,04,,,25,06,,,37*7E
EST: 2024-12-10 19:35:31 $GPGSV,3,2,12,10,,,22,14,,,35,17,,,40,19,,,40*77
EST: 2024-12-10 19:35:31 $GPGSV,3,3,12,22,,,41,30,,,33,46,,,38,48,,,41*7C
EST: 2024-12-10 19:35:31 $GPGLL,,,,,003529.00,V,N*47
EST: 2024-12-10 19:35:31 $GPRMC,003530.00,V,,,,,,,111224,,,N*7D
EST: 2024-12-10 19:35:31 $GPVTG,,,,,,,,,N*30
EST: 2024-12-10 19:35:31 $GPGGA,003530.00,,,,,0,00,99.99,,,,,,*63
EST: 2024-12-10 19:35:31 $GPGSA,A,1,,,,,,,,,,,,,99.99,99.99,99.99*30
EST: 2024-12-10 19:35:31 $GPGSV,3,1,12,02,,,32,03,,,33,04,,,26,06,,,37*7A
EST: 2024-12-10 19:35:31 $GPGSV,3,2,12,10,,,22,14,,,35,17,,,40,19,,,40*77
EST: 2024-12-10 19:35:31 $GPGSV,3,3,12,22,,,40,30,,,33,46,,,38,48,,,41*7D
EST: 2024-12-10 19:35:31 $GPGLL,,,,,003530.00,V,N*4F
EST: 2024-12-10 19:35:31 $GPRMC,003531.00,V,,,,,,,111224,,,N*7C
EST: 2024-12-10 19:35:31 $GPVTG,,,,,,,,,N*30
EST: 2024-12-10 19:35:31 $GPGGA,003531.00,,,,,0,00,99.99,,,,,,*62
EST: 2024-12-10 19:35:31 $GPGSA,A,1,,,,,,,,,,,,,99.99,99.99,99.99*30
EST: 2024-12-10 19:35:31 $GPGSV,4,1,13,02,,,32,03,,,33,04,,,26,06,,,37*7C
EST: 2024-12-10 19:35:31 $GPGSV,4,2,13,10,,,22,14,,,35,16,,,24,17,,,40*7C
EST: 2024-12-10 19:35:31 $GPGSV,4,3,13,19,,,41,22,,,40,30,,,33,46,,,38*7F
EST: 2024-12-10 19:35:31 $GPGSV,4,4,13,48,,,41*72
EST: 2024-12-10 19:35:31 $GPGLL,,,,,003531.00,V,N*4E
EST: 2024-12-10 19:35:31 $GPRMC,003531.98,A,4047.04722,N,07412.29327,W,0.007,,111224,,,A*6C
EST: 2024-12-10 19:35:31 $GPVTG,,T,,M,0.007,N,0.013,K,A*26
EST: 2024-12-10 19:35:31 $GPGGA,003531.98,4047.04722,N,07412.29327,W,1,06,2.17,52.3,M,-34.4,M,,*5A
EST: 2024-12-10 19:35:31 $GPGSA,A,3,22,14,17,19,03,06,,,,,,,3.66,2.17,2.95*05
EST: 2024-12-10 19:35:31 $GPGSV,4,1,13,02,,,32,03,29,110,34,04,,,26,06,21,214,37*74
EST: 2024-12-10 19:35:31 $GPGSV,4,2,13,10,,,21,14,87,132,35,16,,,21,17,65,306,40*73
EST: 2024-12-10 19:35:31 $GPGSV,4,3,13,19,37,274,41,22,68,316,40,30,,,33,46,37,214,37*4C
EST: 2024-12-10 19:35:31 $GPGSV,4,4,13,48,20,242,41*44
EST: 2024-12-10 19:35:31 $GPGLL,4047.04722,N,07412.29327,W,003531.98,A,A*77
EST: 2024-12-10 19:35:31 $GPRMC,003533.00,A,4047.04654,N,07412.29346,W,0.028,,111224,,,A*65
EST: 2024-12-10 19:35:31 $GPVT
EST: 2024-12-10 19:35:35 G,,T,,M,0.028,N,0.051,K,A*2D
EST: 2024-12-10 19:35:35 $GPGGA,003533.00,4047.04654,N,07412.29346,W,1,06,2.17,54.0,M,-34.4,M,,*5B
EST: 2024-12-10 19:35:35 $GPGSA,A,3,22,14,17,19,03,06,,,,,,,3.66,2.17,2.95*05
EST: 2024-12-10 19:35:35 $GPGSV,3,1,12,02,,,31,03,29,110,33,04,,,25,06,21,214,36*74
EST: 2024-12-10 19:35:35 $GPGSV,3,2,12,10,,,21,14,87,132,36,17,65,306,40,19,37,274,40*4B
EST: 2024-12-10 19:35:35 $GPGSV,3,3,12,22,68,316,41,30,,,32,46,37,214,38,48,20,242,41*42
EST: 2024-12-10 19:35:35 $GPGLL,4047.04654,N,07412.29346,W,003533.00,A,A*73
EST: 2024-12-10 19:35:35 $GPRMC,003534.00,A,4047.04668,N,07412.29355,W,0.034,,111224,,,A*62
EST: 2024-12-10 19:35:35 $GPVTG,,T,,M,0.034,N,0.063,K,A*21
EST: 2024-12-10 19:35:35 $GPGGA,003534.00,4047.04668,N,07412.29355,W,1,06,2.17,53.8,M,-34.4,M,,*5E
EST: 2024-12-10 19:35:35 $GPGSA,A,3,22,14,17,19,03,06,,,,,,,3.66,2.17,2.95*05
EST: 2024-12-10 19:35:35 $GPGSV,3,1,12,02,,,31,03,29,110,33,04,,,25,06,21,214,37*75
EST: 2024-12-10 19:35:35 $GPGSV,3,2,12,10,,,21,14,87,132,35,17,65,306,40,19,37,274,40*48
EST: 2024-12-10 19:35:35 $GPGSV,3,3,12,22,68,316,41,30,,,32,46,37,214,38,48,20,242,41*42
EST: 2024-12-10 19:35:35 $GPGLL,4047.04668,N,07412.29355,W,003534.00,A,A*79
EST: 2024-12-10 19:35:35 $GPRMC,003535.00,A,4047.04660,N,07412.29363,W,0.024,,111224,,,A*6F
EST: 2024-12-10 19:35:35 $GPVTG,,T,,M,0.024,N,0.044,K,A*25
EST: 2024-12-10 19:35:35 $GPGGA,003535.00,4047.04660,N,07412.29363,W,1,06,2.17,54.0,M,-34.4,M,,*5D
EST: 2024-12-10 19:35:35 $GPGSA,A,3,22,14,17,19,03,06,,,,,,,3.66,2.17,2.95*05
EST: 2024-12-10 19:35:35 $GPGSV,4,1,14,02,,,30,03,29,110,33,04,,,26,06,21,214,37*76
EST: 2024-12-10 19:35:35 $GPGSV,4,2,14,10,,,21,14,87,132,35,17,65,306,41,19,37,274,40*48
EST: 2024-12-10 19:35:35 $GPGSV,4,3,14,20,,,25,21,,,26,22,68,316,41,30,,,32*44
EST: 2024-12-10 19:35:35 $GPGSV,4,4,14,46,37,214,38,48,20,242,41*79
EST: 2024-12-10 19:35:35 $GPGLL,4047.04660,N,07412.29363,W,003535.00,A,A*75
EST: 2024-12-10 19:35:35 $GPRMC,003536.00,A,4047.04640,N,07412.29371,W,0.034,,111224,,,A*6C
EST: 2024-12-10 19:35:35 $GPVTG,,T,,M,0.034,N,0.063,K,A*21
EST: 2024-12-10 19:35:35 $GPGGA,003536.00,4047.04640,N,07412.29371,W,1,06,2.17,54.5,M,-34.4,M,,*5A
EST: 2024-12-10 19:35:35 $GPGSA,A,3,22,14,17,19,03,06,,,,,,,3.66,2.17,2.95*05
EST: 2024-12-10 19:35:35 $GPGSV,4,1,14,02,,,30,03,29,110,32,04,,,25,06,21,214,37*74
EST: 2024-12-10 19:35:35 $GPGSV,4,2,14,10,,,21,14,87,132,35,17,65,306,41,19,37,275,40*49
EST: 2024-12-10 19:35:35 $GPGSV,4,3,14,20,,,25,21,,,24,22,68,316,41,30,,,33*47
EST: 2024-12-10 19:35:35 $GPGSV,4,4,14,46,37,214,38,48,20,242,41*79
EST: 2024-12-10 19:35:35 $GPGLL,4047.04640,N,07412.29371,W,003536.00,A,A*77
EST: 2024-12-10 19:35:35 $GPRMC,003537.00,A,4047.04635,N,07412.29371,W,0.021,,111224,,,A*6B
EST: 2024-12-10 19:35:35 $GPVTG,,T,,M,0.021,N,0.039,K,A*2A
EST: 2024-12-10 19:35:35 $GPGGA,003537.00,4047.04635,N,07412.29371,W,1,06,2.17
EST: 2024-12-10 19:35:39 ,54.6,M,-34.4,M,,*5A
EST: 2024-12-10 19:35:39 $GPGSA,A,3,22,14,17,19,03,06,,,,,,,3.66,2.17,2.95*05
EST: 2024-12-10 19:35:39 $GPGSV,4,1,14,02,,,30,03,29,110,32,04,,,25,06,21,214,37*74
EST: 2024-12-10 19:35:39 $GPGSV,4,2,14,10,,,21,14,87,132,34,17,65,306,41,19,37,275,41*49
EST: 2024-12-10 19:35:39 $GPGSV,4,3,14,20,,,25,21,,,23,22,68,316,41,30,,,33*40
EST: 2024-12-10 19:35:39 $GPGSV,4,4,14,46,37,214,39,48,20,242,39*77
EST: 2024-12-10 19:35:39 $GPGLL,4047.04635,N,07412.29371,W,003537.00,A,A*74
EST: 2024-12-10 19:35:39 $GPRMC,003538.00,A,4047.04628,N,07412.29369,W,0.036,,111224,,,A*67
EST: 2024-12-10 19:35:39 $GPVTG,,T,,M,0.036,N,0.066,K,A*26
EST: 2024-12-10 19:35:39 $GPGGA,003538.00,4047.04628,N,07412.29369,W,1,06,2.17,54.7,M,-34.4,M,,*51
EST: 2024-12-10 19:35:39 $GPGSA,A,3,22,14,17,19,03,06,,,,,,,3.66,2.17,2.95*05
EST: 2024-12-10 19:35:39 $GPGSV,4,1,15,02,,,31,03,29,110,33,04,,,25,06,21,214,37*75
EST: 2024-12-10 19:35:39 $GPGSV,4,2,15,10,,,22,14,87,132,35,17,65,306,41,19,37,275,40*4B
EST: 2024-12-10 19:35:39 $GPGSV,4,3,15,20,,,26,21,,,22,22,68,316,41,23,,,22*41
EST: 2024-12-10 19:35:39 $GPGSV,4,4,15,30,,,33,46,37,214,38,48,20,242,40*7A
EST: 2024-12-10 19:35:39 $GPGLL,4047.04628,N,07412.29369,W,003538.00,A,A*7E
EST: 2024-12-10 19:35:39 $GPRMC,003539.00,A,4047.04618,N,07412.29369,W,0.044,,111224,,,A*60
EST: 2024-12-10 19:35:39 $GPVTG,,T,,M,0.044,N,0.082,K,A*29
EST: 2024-12-10 19:35:39 $GPGGA,003539.00,4047.04618,N,07412.29369,W,1,06,2.17,54.7,M,-34.4,M,,*53
EST: 2024-12-10 19:35:39 $GPGSA,A,3,22,14,17,19,03,06,,,,,,,3.66,2.17,2.95*05
EST: 2024-12-10 19:35:39 $GPGSV,4,1,15,02,,,31,03,29,110,33,04,,,25,06,21,214,37*75
EST: 2024-12-10 19:35:39 $GPGSV,4,2,15,10,,,21,14,87,132,35,17,65,306,41,19,37,275,40*48
EST: 2024-12-10 19:35:39 $GPGSV,4,3,15,20,,,26,21,,,21,22,68,316,41,23,,,28*48
EST: 2024-12-10 19:35:39 $GPGSV,4,4,15,30,,,33,46,37,214,38,48,20,242,41*7B
EST: 2024-12-10 19:35:39 $GPGLL,4047.04618,N,07412.29369,W,003539.00,A,A*7C
EST: 2024-12-10 19:35:39 $GPRMC,003540.00,A,4047.04607,N,07412.29369,W,0.066,,111224,,,A*60
EST: 2024-12-10 19:35:39 $GPVTG,,T,,M,0.066,N,0.123,K,A*23
EST: 2024-12-10 19:35:39 $GPGGA,003540.00,4047.04607,N,07412.29369,W,1,06,2.17,54.7,M,-34.4,M,,*53
EST: 2024-12-10 19:35:39 $GPGSA,A,3,22,14,17,19,03,06,,,,,,,3.66,2.17,2.95*05
EST: 2024-12-10 19:35:39 $GPGSV,4,1,16,02,,,30,03,29,110,33,04,,,25,06,21,214,37*77
EST: 2024-12-10 19:35:39 $GPGSV,4,2,16,10,,,21,14,87,132,35,17,65,306,42,19,37,275,40*48
EST: 2024-12-10 19:35:39 $GPGSV,4,3,16,20,,,26,21,,,20,22,68,316,41,23,,,27*45
EST: 2024-12-10 19:35:39 $GPGSV,4,4,16,24,,,27,30,,,33,46,37,214,38,48,20,242,41*7B
EST: 2024-12-10 19:35:39 $GPGLL,4047.04607,N,07412.29369,W,003540.00,A,A*7C
EST: 2024-12-10 19:35:39 $GPRMC,003541.00,A,4047.04601,N,07412.29374,W,0.093,,111224,,,A*61
EST: 2024-12-10 19:35:39 $GPVTG,,T,,M,0.093,N,0.172,K,A*2D
EST: 2024-12-10 19:35:39 $GPGGA,003541.00,4047.04601,N,07412.
EST: 2024-12-10 19:35:43 29374,W,1,06,2.17,54.5,M,-34.4,M,,*5A
EST: 2024-12-10 19:35:43 $GPGSA,A,3,22,14,17,19,03,06,,,,,,,3.66,2.17,2.95*05
EST: 2024-12-10 19:35:43 $GPGSV,4,1,16,02,,,30,03,29,110,33,04,,,25,06,21,214,38*78
EST: 2024-12-10 19:35:43 $GPGSV,4,2,16,10,,,21,14,87,132,35,17,65,306,42,19,37,275,40*48
EST: 2024-12-10 19:35:43 $GPGSV,4,3,16,20,,,26,21,,,25,22,68,316,41,23,,,26*41
EST: 2024-12-10 19:35:43 $GPGSV,4,4,16,24,,,26,30,,,33,46,37,214,38,48,20,242,41*7A
EST: 2024-12-10 19:35:43 $GPGLL,4047.04601,N,07412.29374,W,003541.00,A,A*77
EST: 2024-12-10 19:35:43 $GPRMC,003542.00,A,4047.04607,N,07412.29377,W,0.069,,111224,,,A*62
EST: 2024-12-10 19:35:43 $GPVTG,,T,,M,0.069,N,0.127,K,A*28
EST: 2024-12-10 19:35:43 $GPGGA,003542.00,4047.04607,N,07412.29377,W,1,06,2.17,54.2,M,-34.4,M,,*5B
EST: 2024-12-10 19:35:43 $GPGSA,A,3,22,14,17,19,03,06,,,,,,,3.66,2.17,2.95*05
EST: 2024-12-10 19:35:43 $GPGSV,4,1,16,02,,,29,03,29,110,33,04,,,25,06,21,214,38*70
EST: 2024-12-10 19:35:43 $GPGSV,4,2,16,10,,,21,14,87,132,35,17,65,306,42,19,37,275,40*48
EST: 2024-12-10 19:35:43 $GPGSV,4,3,16,20,,,26,21,,,22,22,68,316,41,23,,,26*46
EST: 2024-12-10 19:35:43 $GPGSV,4,4,16,24,,,25,30,,,34,46,37,214,39,48,20,242,41*7F
EST: 2024-12-10 19:35:43 $GPGLL,4047.04607,N,07412.29377,W,003542.00,A,A*71
EST: 2024-12-10 19:35:43 $GPRMC,003543.00,A,4047.04619,N,07412.29379,W,0.084,,111224,,,A*61
EST: 2024-12-10 19:35:43 $GPVTG,,T,,M,0.084,N,0.155,K,A*2E
EST: 2024-12-10 19:35:43 $GPGGA,003543.00,4047.04619,N,07412.29379,W,1,06,2.17,53.9,M,-34.4,M,,*57
EST: 2024-12-10 19:35:43 $GPGSA,A,3,22,14,17,19,03,06,,,,,,,3.66,2.17,2.95*05
EST: 2024-12-10 19:35:43 $GPGSV,4,1,16,02,,,29,03,29,110,33,04,,,25,06,21,214,38*70
EST: 2024-12-10 19:35:43 $GPGSV,4,2,16,10,,,21,14,87,132,34,17,65,306,41,19,37,275,40*4A
EST: 2024-12-10 19:35:43 $GPGSV,4,3,16,20,,,26,21,,,19,22,68,316,41,23,,,26*4E
EST: 2024-12-10 19:35:43 $GPGSV,4,4,16,24,,,25,30,,,34,46,37,214,39,48,20,242,39*70
EST: 2024-12-10 19:35:43 $GPGLL,4047.04619,N,07412.29379,W,003543.00,A,A*71
EST: 2024-12-10 19:35:43 $GPRMC,003544.00,A,4047.04633,N,07412.29383,W,0.028,,111224,,,A*6D
EST: 2024-12-10 19:35:43 $GPVTG,,T,,M,0.028,N,0.052,K,A*2E
EST: 2024-12-10 19:35:43 $GPGGA,003544.00,4047.04633,N,07412.29383,W,1,06,2.17,53.4,M,-34.4,M,,*50
EST: 2024-12-10 19:35:43 $GPGSA,A,3,22,14,17,19,03,06,,,,,,,3.66,2.17,2.95*05
EST: 2024-12-10 19:35:43 $GPGSV,4,1,14,02,,,30,03,29,110,34,04,,,25,06,21,214,38*7D
EST: 2024-12-10 19:35:43 $GPGSV,4,2,14,14,87,132,35,17,65,306,41,19,37,275,40,20,,,26*4D
EST: 2024-12-10 19:35:43 $GPGSV,4,3,14,22,68,316,41,23,,,27,24,,,25,30,,,34*45
EST: 2024-12-10 19:35:43 $GPGSV,4,4,14,46,37,214,39,48,20,242,40*79
EST: 2024-12-10 19:35:43 $GPGLL,4047.04633,N,07412.29383,W,003544.00,A,A*7B
EST: 2024-12-10 19:35:43 $GPRMC,003545.00,A,4047.04650,N,07412.29392,W,0.047,,111224,,,A*60
EST: 2024-12-10 19:35:43 $GPVTG,,T,,M,0.047,N,0.087,K,A*2F
EST: 2024-12-10 19:35:43 $GP
EST: 2024-12-10 19:35:47 GGA,003545.00,4047.04650,N,07412.29392,W,1,06,2.16,52.9,M,-34.4,M,,*59
EST: 2024-12-10 19:35:47 $GPGSA,A,3,22,14,17,19,03,06,,,,,,,3.66,2.16,2.95*04
EST: 2024-12-10 19:35:47 $GPGSV,4,1,15,02,,,29,03,29,110,34,04,,,25,06,21,214,38*74
EST: 2024-12-10 19:35:47 $GPGSV,4,2,15,14,87,132,35,17,65,306,41,19,37,275,40,20,,,26*4C
EST: 2024-12-10 19:35:47 $GPGSV,4,3,15,22,68,316,41,23,,,27,24,,,24,29,,,22*4A
EST: 2024-12-10 19:35:47 $GPGSV,4,4,15,30,,,34,46,37,214,39,48,20,242,39*72
EST: 2024-12-10 19:35:47 $GPGLL,4047.04650,N,07412.29392,W,003545.00,A,A*7F
EST: 2024-12-10 19:35:47 $GPRMC,003546.00,A,4047.04665,N,07412.29400,W,0.033,,111224,,,A*6A
EST: 2024-12-10 19:35:47 $GPVTG,,T,,M,0.033,N,0.060,K,A*25
EST: 2024-12-10 19:35:47 $GPGGA,003546.00,4047.04665,N,07412.29400,W,1,06,2.16,52.5,M,-34.4,M,,*5C
EST: 2024-12-10 19:35:47 $GPGSA,A,3,22,14,17,19,03,06,,,,,,,3.66,2.16,2.95*04
EST: 2024-12-10 19:35:47 $GPGSV,4,1,16,02,,,29,03,29,110,34,04,,,25,06,21,214,38*77
EST: 2024-12-10 19:35:47 $GPGSV,4,2,16,14,87,132,35,17,65,306,42,19,37,275,39,20,,,26*42
EST: 2024-12-10 19:35:47 $GPGSV,4,3,16,22,68,316,41,23,,,27,24,,,24,27,,,25*40
EST: 2024-12-10 19:35:47 $GPGSV,4,4,16,29,,,22,30,,,34,46,37,214,39,48,20,242,41*75
EST: 2024-12-10 19:35:47 $GPGLL,4047.04665,N,07412.29400,W,003546.00,A,A*76
EST: 2024-12-10 19:35:47 $GPRMC,003547.00,A,4047.04682,N,07412.29409,W,0.117,,111224,,,A*6C
EST: 2024-12-10 19:35:47 $GPVTG,,T,,M,0.117,N,0.217,K,A*20
EST: 2024-12-10 19:35:47 $GPGGA,003547.00,4047.04682,N,07412.29409,W,1,06,2.16,52.0,M,-34.4,M,,*58
EST: 2024-12-10 19:35:47 $GPGSA,A,3,22,14,17,19,03,06,,,,,,,3.66,2.16,2.95*04
EST: 2024-12-10 19:35:47 $GPGSV,4,1,16,02,,,28,03,29,110,34,04,,,26,06,21,214,38*75
EST: 2024-12-10 19:35:47 $GPGSV,4,2,16,14,87,132,35,17,65,306,42,19,37,275,39,20,,,25*41
EST: 2024-12-10 19:35:47 $GPGSV,4,3,16,22,68,316,41,23,,,27,24,,,24,27,,,24*41
EST: 2024-12-10 19:35:47 $GPGSV,4,4,16,29,,,21,30,,,34,46,37,214,38,48,20,242,40*76
EST: 2024-12-10 19:35:47 $GPGLL,4047.04682,N,07412.29409,W,003547.00,A,A*77
EST: 2024-12-10 19:35:47 $GPRMC,003548.00,A,4047.04689,N,07412.29415,W,0.115,,111224,,,A*67
EST: 2024-12-10 19:35:47 $GPVTG,,T,,M,0.115,N,0.213,K,A*26
EST: 2024-12-10 19:35:47 $GPGGA,003548.00,4047.04689,N,07412.29415,W,1,06,2.16,51.8,M,-34.4,M,,*5A
EST: 2024-12-10 19:35:47 $GPGSA,A,3,22,14,17,19,03,06,,,,,,,3.66,2.16,2.95*04
EST: 2024-12-10 19:35:47 $GPGSV,5,1,17,02,,,28,03,29,110,34,04,,,26,06,21,214,38*75
EST: 2024-12-10 19:35:47 $GPGSV,5,2,17,14,87,132,35,17,65,306,42,19,37,275,38,20,,,25*40
EST: 2024-12-10 19:35:47 $GPGSV,5,3,17,22,68,316,41,23,,,27,24,,,23,27,,,23*41
EST: 2024-12-10 19:35:47 $GPGSV,5,4,17,29,,,20,30,,,34,32,,,28,46,37,214,39*43
EST: 2024-12-10 19:35:47 $GPGSV,5,5,17,48,20,242,39*4F
EST: 2024-12-10 19:35:47 $GPGLL,4047.04689,N,07412.29415,W,003548.00,A,A*7E
EST: 2024-12-10 19:35:47 $GPRMC,003549.00,A,4047.04641,N,07412.2
EST: 2024-12-10 19:35:50 9427,W,0.043,,111224,,,A*61
EST: 2024-12-10 19:35:50 $GPVTG,,T,,M,0.043,N,0.080,K,A*2C
EST: 2024-12-10 19:35:50 $GPGGA,003549.00,4047.04641,N,07412.29427,W,1,06,2.16,53.1,M,-34.4,M,,*55
EST: 2024-12-10 19:35:50 $GPGSA,A,3,22,14,17,19,03,06,,,,,,,3.66,2.16,2.95*04
EST: 2024-12-10 19:35:50 $GPGSV,4,1,16,02,,,26,03,29,110,35,04,,,26,06,21,214,37*75
EST: 2024-12-10 19:35:50 $GPGSV,4,2,16,14,87,132,39,17,65,306,40,19,37,275,39,20,,,25*4F
EST: 2024-12-10 19:35:50 $GPGSV,4,3,16,22,68,316,41,23,,,27,24,,,23,27,,,22*40
EST: 2024-12-10 19:35:50 $GPGSV,4,4,16,29,,,17,30,,,34,46,37,214,36,48,20,242,39*73
EST: 2024-12-10 19:35:50 $GPGLL,4047.04641,N,07412.29427,W,003549.00,A,A*7A
EST: 2024-12-10 19:35:50 $GPRMC,003550.00,A,4047.04649,N,07412.29434,W,0.128,,111224,,,A*6F
EST: 2024-12-10 19:35:50 $GPVTG,,T,,M,0.128,N,0.238,K,A*21
EST: 2024-12-10 19:35:50 $GPGGA,003550.00,4047.04649,N,07412.29434,W,1,06,2.16,52.8,M,-34.4,M,,*5F
EST: 2024-12-10 19:35:50 $GPGSA,A,3,22,14,17,19,03,06,,,,,,,3.66,2.16,2.95*04
EST: 2024-12-10 19:35:50 $GPGSV,4,1,15,02,,,26,03,29,110,31,04,,,26,06,21,214,30*75
EST: 2024-12-10 19:35:50 $GPGSV,4,2,15,14,87,132,37,17,65,306,40,19,37,275,39,20,,,25*42
EST: 2024-12-10 19:35:50 $GPGSV,4,3,15,22,68,316,39,23,,,27,24,,,26,27,,,20*4B
EST: 2024-12-10 19:35:50 $GPGSV,4,4,15,30,,,31,46,37,214,36,48,20,242,39*78
EST: 2024-12-10 19:35:50 $GPGLL,4047.04649,N,07412.29434,W,003550.00,A,A*78
EST: 2024-12-10 19:35:50 $GPRMC,003551.00,A,4047.04610,N,07412.29454,W,0.097,,111224,,,A*61
EST: 2024-12-10 19:35:50 $GPVTG,,T,,M,0.097,N,0.179,K,A*22
EST: 2024-12-10 19:35:50 $GPGGA,003551.00,4047.04610,N,07412.29454,W,1,07,1.82,53.7,M,-34.4,M,,*55
EST: 2024-12-10 19:35:50 $GPGSA,A,3,22,14,17,19,03,06,30,,,,,,3.36,1.82,2.83*0B
EST: 2024-12-10 19:35:50 $GPGSV,4,1,15,02,,,26,03,29,110,30,04,,,26,06,21,214,30*74
EST: 2024-12-10 19:35:50 $GPGSV,4,2,15,14,87,132,40,17,65,306,40,19,37,275,39,20,,,25*42
EST: 2024-12-10 19:35:50 $GPGSV,4,3,15,22,68,316,40,23,,,27,24,,,28,27,,,25*4E
EST: 2024-12-10 19:35:50 $GPGSV,4,4,15,30,25,200,30,46,37,214,38,48,20,242,41*4D
EST: 2024-12-10 19:35:50 $GPGLL,4047.04610,N,07412.29454,W,003551.00,A,A*73
EST: 2024-12-10 19:35:50 $GPRMC,003552.00,A,4047.04612,N,07412.29454,W,0.056,,111224,,,A*6D
EST: 2024-12-10 19:35:50 $GPVTG,,T,,M,0.056,N,0.104,K,A*25
EST: 2024-12-10 19:35:50 $GPGGA,003552.00,4047.04612,N,07412.29454,W,1,07,1.82,53.4,M,-34.4,M,,*57
EST: 2024-12-10 19:35:50 $GPGSA,A,3,22,14,17,19,03,06,30,,,,,,3.36,1.82,2.83*0B
EST: 2024-12-10 19:35:50 $GPGSV,4,1,15,02,,,27,03,29,110,34,04,,,26,06,21,214,35*74
EST: 2024-12-10 19:35:50 $GPGSV,4,2,15,14,87,132,38,17,65,306,40,19,37,275,39,20,,,25*4D
EST: 2024-12-10 19:35:50 $GPGSV,4,3,15,22,68,316,40,23,,,27,24,,,25,27,,,23*45
EST: 2024-12-10 19:35:50 $GPGSV,4,4,15,30,25,200,32,46,37,214,38,48,20,242,38*41
EST: 2024-12-10 19:35:50 $GPGLL,4047.04612,N,07412.29454,W,003552.00,A,A*72
EST: 2024-12-10 19:35:54 $GPRMC,003553.00,A,4047.04618,N,07412.29446,W,0.127,,111224,,,A*62
EST: 2024-12-10 19:35:54 $GPVTG,,T,,M,0.127,N,0.235,K,A*23
EST: 2024-12-10 19:35:54 $GPGGA,003553.00,4047.04618,N,07412.29446,W,1,07,1.82,53.4,M,-34.4,M,,*5F
EST: 2024-12-10 19:35:54 $GPGSA,A,3,22,14,17,19,03,06,30,,,,,,3.36,1.82,2.83*0B
EST: 2024-12-10 19:35:54 $GPGSV,4,1,15,02,,,27,03,29,110,34,04,,,26,06,21,214,37*76
EST: 2024-12-10 19:35:54 $GPGSV,4,2,15,14,87,133,39,17,65,306,40,19,37,275,37,20,,,25*43
EST: 2024-12-10 19:35:54 $GPGSV,4,3,15,22,68,316,42,23,,,27,24,,,25,27,,,23*47
EST: 2024-12-10 19:35:54 $GPGSV,4,4,15,30,25,200,33,46,37,214,35,48,20,242,40*42
EST: 2024-12-10 19:35:54 $GPGLL,4047.04618,N,07412.29446,W,003553.00,A,A*7A
EST: 2024-12-10 19:35:54 $GPRMC,003554.00,A,4047.04615,N,07412.29438,W,0.121,,111224,,,A*67
EST: 2024-12-10 19:35:54 $GPVTG,,T,,M,0.121,N,0.225,K,A*24
EST: 2024-12-10 19:35:54 $GPGGA,003554.00,4047.04615,N,07412.29438,W,1,07,1.82,53.5,M,-34.4,M,,*5D
EST: 2024-12-10 19:35:54 $GPGSA,A,3,22,14,17,19,03,06,30,,,,,,3.36,1.82,2.83*0B
EST: 2024-12-10 19:35:54 $GPGSV,4,1,16,02,,,25,03,29,110,35,04,,,26,06,21,214,36*77
EST: 2024-12-10 19:35:54 $GPGSV,4,2,16,14,87,133,40,17,65,306,40,19,37,275,36,20,,,25*4F
EST: 2024-12-10 19:35:54 $GPGSV,4,3,16,21,,,31,22,68,316,41,23,,,27,24,,,26*41
EST: 2024-12-10 19:35:54 $GPGSV,4,4,16,27,,,21,30,25,200,33,46,37,214,35,48,20,242,41*46
EST: 2024-12-10 19:35:54 $GPGLL,4047.04615,N,07412.29438,W,003554.00,A,A*79
EST: 2024-12-10 19:35:54 $GPRMC,003555.00,A,4047.04606,N,07412.29434,W,0.064,,111224,,,A*68
EST: 2024-12-10 19:35:54 $GPVTG,,T,,M,0.064,N,0.119,K,A*28
EST: 2024-12-10 19:35:54 $GPGGA,003555.00,4047.04606,N,07412.29434,W,1,07,1.82,53.7,M,-34.4,M,,*50
EST: 2024-12-10 19:35:54 $GPGSA,A,3,22,14,17,19,03,06,30,,,,,,3.36,1.82,2.83*0B
EST: 2024-12-10 19:35:54 $GPGSV,4,1,16,02,,,24,03,29,110,35,04,,,26,06,21,214,36*76
EST: 2024-12-10 19:35:54 $GPGSV,4,2,16,14,87,133,40,17,65,306,40,19,37,275,36,20,,,25*4F
EST: 2024-12-10 19:35:54 $GPGSV,4,3,16,21,,,30,22,68,316,41,23,,,27,24,,,27*41
EST: 2024-12-10 19:35:54 $GPGSV,4,4,16,27,,,19,30,25,200,33,46,37,214,35,48,20,242,41*4D
EST: 2024-12-10 19:35:54 $GPGLL,4047.04606,N,07412.29434,W,003555.00,A,A*76
EST: 2024-12-10 19:35:54 $GPRMC,003556.00,A,4047.04602,N,07412.29434,W,0.054,,111224,,,A*6C
EST: 2024-12-10 19:35:54 $GPVTG,,T,,M,0.054,N,0.100,K,A*23
EST: 2024-12-10 19:35:54 $GPGGA,003556.00,4047.04602,N,07412.29434,W,1,07,1.82,53.7,M,-34.4,M,,*57
EST: 2024-12-10 19:35:54 $GPGSA,A,3,22,14,17,19,03,06,30,,,,,,3.36,1.82,2.83*0B
EST: 2024-12-10 19:35:54 $GPGSV,4,1,15,02,,,23,03,29,110,35,04,,,26,06,21,214,36*72
EST: 2024-12-10 19:35:54 $GPGSV,4,2,15,14,87,133,40,17,65,306,40,19,37,275,36,20,,,25*4C
EST: 2024-12-10 19:35:54 $GPGSV,4,3,15,21,,,30,22,68,316,41,23,,,27,24,,,27*42
EST: 2024-12-10 19:35:54 $GPGSV,4,4,15,30,25,200,33,46,37,214,35,48,20,24
EST: 2024-12-10 19:35:58 2,40*42
EST: 2024-12-10 19:35:58 $GPGLL,4047.04602,N,07412.29434,W,003556.00,A,A*71
EST: 2024-12-10 19:35:58 $GPRMC,003557.00,A,4047.04614,N,07412.29423,W,0.017,,111224,,,A*6B
EST: 2024-12-10 19:35:58 $GPVTG,,T,,M,0.017,N,0.031,K,A*27
EST: 2024-12-10 19:35:58 $GPGGA,003557.00,4047.04614,N,07412.29423,W,1,07,1.82,53.4,M,-34.4,M,,*54
EST: 2024-12-10 19:35:58 $GPGSA,A,3,22,14,17,19,03,06,30,,,,,,3.36,1.82,2.83*0B
EST: 2024-12-10 19:35:58 $GPGSV,4,1,15,02,,,25,03,29,110,35,04,,,26,06,21,214,36*74
EST: 2024-12-10 19:35:58 $GPGSV,4,2,15,14,87,133,41,17,65,306,40,19,37,275,36,20,,,25*4D
EST: 2024-12-10 19:35:58 $GPGSV,4,3,15,21,,,30,22,68,316,41,23,,,27,24,,,27*42
EST: 2024-12-10 19:35:58 $GPGSV,4,4,15,30,25,200,33,46,37,214,35,48,20,242,40*42
EST: 2024-12-10 19:35:58 $GPGLL,4047.04614,N,07412.29423,W,003557.00,A,A*71
EST: 2024-12-10 19:35:58 $GPRMC,003558.00,A,4047.04622,N,07412.29420,W,0.095,,111224,,,A*68
EST: 2024-12-10 19:35:58 $GPVTG,,T,,M,0.095,N,0.176,K,A*2F
EST: 2024-12-10 19:35:58 $GPGGA,003558.00,4047.04622,N,07412.29420,W,1,07,1.82,53.1,M,-34.4,M,,*58
EST: 2024-12-10 19:35:58 $GPGSA,A,3,22,14,17,19,03,06,30,,,,,,3.36,1.82,2.83*0B
EST: 2024-12-10 19:35:58 $GPGSV,4,1,15,02,,,25,03,29,110,34,04,,,25,06,21,214,36*76
EST: 2024-12-10 19:35:58 $GPGSV,4,2,15,14,87,133,41,17,65,306,40,19,37,275,37,20,,,25*4C
EST: 2024-12-10 19:35:58 $GPGSV,4,3,15,21,,,30,22,68,316,41,23,,,26,24,,,26*42
EST: 2024-12-10 19:35:58 $GPGSV,4,4,15,30,25,200,33,46,37,214,35,48,20,242,40*42
EST: 2024-12-10 19:35:58 $GPGLL,4047.04622,N,07412.29420,W,003558.00,A,A*78
EST: 2024-12-10 19:35:58 $GPRMC,003559.00,A,4047.04627,N,07412.29417,W,0.058,,111224,,,A*69
EST: 2024-12-10 19:35:58 $GPVTG,,T,,M,0.058,N,0.107,K,A*28
EST: 2024-12-10 19:35:58 $GPGGA,003559.00,4047.04627,N,07412.29417,W,1,07,1.82,52.9,M,-34.4,M,,*51
EST: 2024-12-10 19:35:58 $GPGSA,A,3,22,14,17,19,03,06,30,,,,,,3.36,1.82,2.83*0B
EST: 2024-12-10 19:35:58 $GPGSV,4,1,15,02,,,26,03,29,110,34,04,,,25,06,21,214,36*75
EST: 2024-12-10 19:35:58 $GPGSV,4,2,15,14,87,133,41,17,65,306,40,19,37,275,37,20,,,25*4C
EST: 2024-12-10 19:35:58 $GPGSV,4,3,15,21,,,30,22,68,316,41,23,,,26,24,,,26*42
EST: 2024-12-10 19:35:58 $GPGSV,4,4,15,30,25,200,33,46,37,214,35,48,20,242,40*42
EST: 2024-12-10 19:35:58 $GPGLL,4047.04627,N,07412.29417,W,003559.00,A,A*78
EST: 2024-12-10 19:35:58 $GPRMC,003600.00,A,4047.04633,N,07412.29412,W,0.109,,111224,,,A*63
EST: 2024-12-10 19:35:58 $GPVTG,,T,,M,0.109,N,0.201,K,A*28
EST: 2024-12-10 19:35:58 $GPGGA,003600.00,4047.04633,N,07412.29412,W,1,07,1.82,52.7,M,-34.4,M,,*50
EST: 2024-12-10 19:35:58 $GPGSA,A,3,22,14,17,19,03,06,30,,,,,,3.36,1.82,2.83*0B
EST: 2024-12-10 19:35:58 $GPGSV,4,1,15,02,,,26,03,29,110,34,04,,,25,06,21,214,36*75
EST: 2024-12-10 19:35:58 $GPGSV,4,2,15,14,87,133,41,17,65,306,40,19,37,275,37,20,,,25*4C
EST: 2024-12-10 19:35:58 $GPGSV,4,3,15,21,,,29,22,68,316,41,23,,,26,24,,,26*4A
EST: 2024-12-10 19:35:58 $GP
EST: 2024-12-10 19:36:02 GSV,4,4,15,30,25,200,33,46,37,214,35,48,20,242,40*42
EST: 2024-12-10 19:36:02 $GPGLL,4047.04633,N,07412.29412,W,003600.00,A,A*77
EST: 2024-12-10 19:36:02 $GPRMC,003601.00,A,4047.04639,N,07412.29406,W,0.037,,111224,,,A*61
EST: 2024-12-10 19:36:02 $GPVTG,,T,,M,0.037,N,0.068,K,A*29
EST: 2024-12-10 19:36:02 $GPGGA,003601.00,4047.04639,N,07412.29406,W,1,07,1.82,52.5,M,-34.4,M,,*5C
EST: 2024-12-10 19:36:02 $GPGSA,A,3,22,14,17,19,03,06,30,,,,,,3.36,1.82,2.83*0B
EST: 2024-12-10 19:36:02 $GPGSV,4,1,15,02,,,27,03,29,110,34,04,,,25,06,21,214,36*74
EST: 2024-12-10 19:36:02 $GPGSV,4,2,15,14,87,133,41,17,65,306,40,19,37,275,37,20,,,25*4C
EST: 2024-12-10 19:36:02 $GPGSV,4,3,15,21,,,29,22,68,316,41,23,,,26,24,,,26*4A
EST: 2024-12-10 19:36:02 $GPGSV,4,4,15,30,25,200,34,46,37,214,35,48,20,242,40*45
EST: 2024-12-10 19:36:02 $GPGLL,4047.04639,N,07412.29406,W,003601.00,A,A*79
EST: 2024-12-10 19:36:02 $GPRMC,003602.00,A,4047.04645,N,07412.29400,W,0.085,,111224,,,A*66
EST: 2024-12-10 19:36:02 $GPVTG,,T,,M,0.085,N,0.158,K,A*22
EST: 2024-12-10 19:36:02 $GPGGA,003602.00,4047.04645,N,07412.29400,W,1,07,1.82,52.3,M,-34.4,M,,*54
EST: 2024-12-10 19:36:02 $GPGSA,A,3,22,14,17,19,03,06,30,,,,,,3.36,1.82,2.83*0B
EST: 2024-12-10 19:36:02 $GPGSV,4,1,15,02,,,27,03,29,110,34,04,,,25,06,21,214,36*74
EST: 2024-12-10 19:36:02 $GPGSV,4,2,15,14,87,133,41,17,65,306,40,19,37,275,37,20,,,26*4F
EST: 2024-12-10 19:36:02 $GPGSV,4,3,15,21,,,29,22,68,316,41,23,,,26,24,,,26*4A
EST: 2024-12-10 19:36:02 $GPGSV,4,4,15,30,25,200,34,46,37,214,35,48,20,242,40*45
EST: 2024-12-10 19:36:02 $GPGLL,4047.04645,N,07412.29400,W,003602.00,A,A*77
EST: 2024-12-10 19:36:02 $GPRMC,003603.00,A,4047.04650,N,07412.29396,W,0.044,,111224,,,A*66
EST: 2024-12-10 19:36:02 $GPVTG,,T,,M,0.044,N,0.081,K,A*2A
EST: 2024-12-10 19:36:02 $GPGGA,003603.00,4047.04650,N,07412.29396,W,1,07,1.82,52.0,M,-34.4,M,,*5A
EST: 2024-12-10 19:36:02 $GPGSA,A,3,22,14,17,19,03,06,30,,,,,,3.36,1.82,2.83*0B
EST: 2024-12-10 19:36:02 $GPGSV,4,1,15,02,,,27,03,29,110,34,04,,,25,06,21,214,35*77
EST: 2024-12-10 19:36:02 $GPGSV,4,2,15,14,87,133,41,17,65,306,40,19,37,275,37,20,,,26*4F
EST: 2024-12-10 19:36:02 $GPGSV,4,3,15,21,,,29,22,68,316,41,23,,,26,24,,,26*4A
EST: 2024-12-10 19:36:02 $GPGSV,4,4,15,30,25,200,34,46,37,214,35,48,20,242,40*45
EST: 2024-12-10 19:36:02 $GPGLL,4047.04650,N,07412.29396,W,003603.00,A,A*7A
EST: 2024-12-10 19:36:02 $GPRMC,003604.00,A,4047.04656,N,07412.29389,W,0.116,,111224,,,A*6F
EST: 2024-12-10 19:36:02 $GPVTG,,T,,M,0.116,N,0.214,K,A*22
EST: 2024-12-10 19:36:02 $GPGGA,003604.00,4047.04656,N,07412.29389,W,1,07,1.82,51.8,M,-34.4,M,,*5E
EST: 2024-12-10 19:36:02 $GPGSA,A,3,22,14,17,19,03,06,30,,,,,,3.36,1.82,2.83*0B
EST: 2024-12-10 19:36:02 $GPGSV,4,1,15,02,,,27,03,29,110,34,04,,,25,06,21,214,35*77
EST: 2024-12-10 19:36:02 $GPGSV,4,2,15,14,87,133,41,17,65,306,40,19,37,275,37,20,,,26*4F
EST: 2024-12-10 19:36:02 $GPGSV,4,3,15
EST: 2024-12-10 19:36:06 ,21,,,29,22,68,316,41,23,,,26,24,,,25*49
EST: 2024-12-10 19:36:06 $GPGSV,4,4,15,30,25,200,33,46,37,214,35,48,20,242,40*42
EST: 2024-12-10 19:36:06 $GPGLL,4047.04656,N,07412.29389,W,003604.00,A,A*75
EST: 2024-12-10 19:36:06 $GPRMC,003605.00,A,4047.04660,N,07412.29382,W,0.047,,111224,,,A*65
EST: 2024-12-10 19:36:06 $GPVTG,,T,,M,0.047,N,0.087,K,A*2F
EST: 2024-12-10 19:36:06 $GPGGA,003605.00,4047.04660,N,07412.29382,W,1,07,1.82,51.5,M,-34.4,M,,*5C
EST: 2024-12-10 19:36:06 $GPGSA,A,3,22,14,17,19,03,06,30,,,,,,3.36,1.82,2.83*0B
EST: 2024-12-10 19:36:06 $GPGSV,4,1,15,02,,,28,03,29,110,34,04,,,25,06,21,214,35*78
EST: 2024-12-10 19:36:06 $GPGSV,4,2,15,14,87,133,41,17,65,306,40,19,37,275,37,20,,,25*4C
EST: 2024-12-10 19:36:06 $GPGSV,4,3,15,21,,,29,22,68,316,41,23,,,26,24,,,25*49
EST: 2024-12-10 19:36:06 $GPGSV,4,4,15,30,25,200,34,46,37,214,35,48,20,242,40*45
EST: 2024-12-10 19:36:06 $GPGLL,4047.04660,N,07412.29382,W,003605.00,A,A*7A
EST: 2024-12-10 19:36:06 $GPRMC,003606.00,A,4047.04674,N,07412.29374,W,0.070,,111224,,,A*6E
EST: 2024-12-10 19:36:06 $GPVTG,,T,,M,0.070,N,0.129,K,A*2E
EST: 2024-12-10 19:36:06 $GPGGA,003606.00,4047.04674,N,07412.29374,W,1,07,1.82,51.1,M,-34.4,M,,*57
EST: 2024-12-10 19:36:06 $GPGSA,A,3,22,14,17,19,03,06,30,,,,,,3.36,1.82,2.83*0B
EST: 2024-12-10 19:36:06 $GPGSV,4,1,15,02,,,28,03,29,110,34,04,,,25,06,21,214,35*78
EST: 2024-12-10 19:36:06 $GPGSV,4,2,15,14,87,133,41,17,65,306,40,19,37,275,37,20,,,25*4C
EST: 2024-12-10 19:36:06 $GPGSV,4,3,15,21,,,29,22,68,316,41,23,,,26,24,,,25*49
EST: 2024-12-10 19:36:06 $GPGSV,4,4,15,30,25,200,34,46,37,214,35,48,20,242,40*45
EST: 2024-12-10 19:36:06 $GPGLL,4047.04674,N,07412.29374,W,003606.00,A,A*75
EST: 2024-12-10 19:36:06 $GPRMC,003607.00,A,4047.04682,N,07412.29370,W,0.026,,111224,,,A*61
EST: 2024-12-10 19:36:06 $GPVTG,,T,,M,0.026,N,0.048,K,A*2B
EST: 2024-12-10 19:36:06 $GPGGA,003607.00,4047.04682,N,07412.29370,W,1,07,1.82,50.7,M,-34.4,M,,*5C
EST: 2024-12-10 19:36:06 $GPGSA,A,3,22,14,17,19,03,06,30,,,,,,3.36,1.82,2.83*0B
EST: 2024-12-10 19:36:06 $GPGSV,4,1,15,02,,,28,03,29,110,34,04,,,25,06,21,214,35*78
EST: 2024-12-10 19:36:06 $GPGSV,4,2,15,14,87,133,40,17,65,306,40,19,37,275,37,20,,,26*4E
EST: 2024-12-10 19:36:06 $GPGSV,4,3,15,21,,,33,22,68,316,39,23,,,26,24,,,25*4D
EST: 2024-12-10 19:36:06 $GPGSV,4,4,15,30,25,200,33,46,37,214,38,48,20,242,40*4F
EST: 2024-12-10 19:36:06 $GPGLL,4047.04682,N,07412.29370,W,003607.00,A,A*79
EST: 2024-12-10 19:36:06 $GPRMC,003608.00,A,4047.04684,N,07412.29368,W,0.136,,111224,,,A*61
EST: 2024-12-10 19:36:06 $GPVTG,,T,,M,0.136,N,0.252,K,A*22
EST: 2024-12-10 19:36:06 $GPGGA,003608.00,4047.04684,N,07412.29368,W,1,07,1.82,50.5,M,-34.4,M,,*5E
EST: 2024-12-10 19:36:06 $GPGSA,A,3,22,14,17,19,03,06,30,,,,,,3.36,1.82,2.83*0B
EST: 2024-12-10 19:36:06 $GPGSV,4,1,15,02,,,28,03,29,110,33,04,,,25,06,21,214,36*7C
EST: 2024-12-10 19:36:06 $GPGSV,4,2,15,14,87,133,39,17,65,
EST: 2024-12-10 19:36:10 306,41,19,37,275,38,20,,,26*4E
EST: 2024-12-10 19:36:10 $GPGSV,4,3,15,21,,,33,22,68,316,36,23,,,26,24,,,22*45
EST: 2024-12-10 19:36:10 $GPGSV,4,4,15,30,25,200,33,46,37,214,37,48,20,242,41*41
EST: 2024-12-10 19:36:10 $GPGLL,4047.04684,N,07412.29368,W,003608.00,A,A*79
EST: 2024-12-10 19:36:10 $GPRMC,003609.00,A,4047.04695,N,07412.29364,W,0.105,,111224,,,A*6C
EST: 2024-12-10 19:36:10 $GPVTG,,T,,M,0.105,N,0.195,K,A*2A
EST: 2024-12-10 19:36:10 $GPGGA,003609.00,4047.04695,N,07412.29364,W,1,07,1.82,50.1,M,-34.4,M,,*57
EST: 2024-12-10 19:36:10 $GPGSA,A,3,22,14,17,19,03,06,30,,,,,,3.36,1.82,2.83*0B
EST: 2024-12-10 19:36:10 $GPGSV,4,1,15,02,,,29,03,29,110,34,04,,,26,06,21,214,35*7A
EST: 2024-12-10 19:36:10 $GPGSV,4,2,15,14,87,133,41,17,65,306,41,19,37,275,38,20,,,26*41
EST: 2024-12-10 19:36:10 $GPGSV,4,3,15,21,,,27,22,68,316,39,23,,,26,24,,,22*4F
EST: 2024-12-10 19:36:10 $GPGSV,4,4,15,30,25,200,32,46,37,214,37,48,20,242,41*40
EST: 2024-12-10 19:36:10 $GPGLL,4047.04695,N,07412.29364,W,003609.00,A,A*74
EST: 2024-12-10 19:36:10 $GPRMC,003610.00,A,4047.04711,N,07412.29360,W,0.047,,111224,,,A*6A
EST: 2024-12-10 19:36:10 $GPVTG,,T,,M,0.047,N,0.088,K,A*20
EST: 2024-12-10 19:36:10 $GPGGA,003610.00,4047.04711,N,07412.29360,W,1,07,1.82,49.5,M,-34.4,M,,*5A
EST: 2024-12-10 19:36:10 $GPGSA,A,3,22,14,17,19,03,06,30,,,,,,3.36,1.82,2.83*0B
EST: 2024-12-10 19:36:10 $GPGSV,4,1,15,02,,,29,03,29,110,34,04,,,25,06,21,214,35*79
EST: 2024-12-10 19:36:10 $GPGSV,4,2,15,14,87,133,41,17,65,306,41,19,37,275,39,20,,,26*40
EST: 2024-12-10 19:36:10 $GPGSV,4,3,15,21,,,28,22,68,316,38,23,,,27,24,,,21*43
EST: 2024-12-10 19:36:10 $GPGSV,4,4,15,30,25,200,32,46,37,214,38,48,20,242,41*4F
EST: 2024-12-10 19:36:10 $GPGLL,4047.04711,N,07412.29360,W,003610.00,A,A*75
EST: 2024-12-10 19:36:10 $GPRMC,003611.00,A,4047.04723,N,07412.29357,W,0.061,,111224,,,A*6A
EST: 2024-12-10 19:36:10 $GPVTG,,T,,M,0.061,N,0.113,K,A*27
EST: 2024-12-10 19:36:10 $GPGGA,003611.00,4047.04723,N,07412.29357,W,1,07,1.82,49.0,M,-34.4,M,,*5B
EST: 2024-12-10 19:36:10 $GPGSA,A,3,22,14,17,19,03,06,30,,,,,,3.36,1.82,2.83*0B
EST: 2024-12-10 19:36:10 $GPGSV,4,1,15,02,,,29,03,29,110,34,04,,,25,06,21,214,35*79
EST: 2024-12-10 19:36:10 $GPGSV,4,2,15,14,87,133,41,17,65,306,41,19,37,275,39,20,,,26*40
EST: 2024-12-10 19:36:10 $GPGSV,4,3,15,21,,,28,22,68,316,38,23,,,27,24,,,21*43
EST: 2024-12-10 19:36:10 $GPGSV,4,4,15,30,25,200,32,46,37,214,38,48,20,242,41*4F
EST: 2024-12-10 19:36:10 $GPGLL,4047.04723,N,07412.29357,W,003611.00,A,A*71
EST: 2024-12-10 19:36:10 $GPRMC,003612.00,A,4047.04735,N,07412.29353,W,0.083,,111224,,,A*66
EST: 2024-12-10 19:36:10 $GPVTG,,T,,M,0.083,N,0.154,K,A*28
EST: 2024-12-10 19:36:10 $GPGGA,003612.00,4047.04735,N,07412.29353,W,1,07,1.82,48.6,M,-34.4,M,,*5C
EST: 2024-12-10 19:36:10 $GPGSA,A,3,22,14,17,19,03,06,30,,,,,,3.36,1.82,2.83*0B
EST: 2024-12-10 19:36:10 $GPGSV,4,1,15,02,,,29,03,29,110,34,04,,,25,06,21
EST: 2024-12-10 19:36:14 ,214,35*79
EST: 2024-12-10 19:36:14 $GPGSV,4,2,15,14,87,133,41,17,65,306,41,19,37,275,38,20,,,26*41
EST: 2024-12-10 19:36:14 $GPGSV,4,3,15,21,,,28,22,68,316,38,23,,,26,24,,,22*41
EST: 2024-12-10 19:36:14 $GPGSV,4,4,15,30,25,200,32,46,37,214,38,48,20,242,41*4F
EST: 2024-12-10 19:36:14 $GPGLL,4047.04735,N,07412.29353,W,003612.00,A,A*71
EST: 2024-12-10 19:36:14 $GPRMC,003613.00,A,4047.04746,N,07412.29346,W,0.096,,111224,,,A*63
EST: 2024-12-10 19:36:14 $GPVTG,,T,,M,0.096,N,0.178,K,A*22
EST: 2024-12-10 19:36:14 $GPGGA,003613.00,4047.04746,N,07412.29346,W,1,07,1.82,48.2,M,-34.4,M,,*59
EST: 2024-12-10 19:36:14 $GPGSA,A,3,22,14,17,19,03,06,30,,,,,,3.36,1.82,2.83*0B
EST: 2024-12-10 19:36:14 $GPGSV,4,1,15,02,,,29,03,29,110,35,04,,,25,06,21,214,35*78
EST: 2024-12-10 19:36:14 $GPGSV,4,2,15,14,87,134,42,17,65,306,41,19,37,275,38,20,,,26*45
EST: 2024-12-10 19:36:14 $GPGSV,4,3,15,21,,,29,22,68,316,38,23,,,27,24,,,22*41
EST: 2024-12-10 19:36:14 $GPGSV,4,4,15,30,25,200,32,46,37,214,38,48,20,242,41*4F
EST: 2024-12-10 19:36:14 $GPGLL,4047.04746,N,07412.29346,W,003613.00,A,A*70
EST: 2024-12-10 19:36:14 $GPRMC,003614.00,A,4047.04754,N,07412.29340,W,0.024,,111224,,,A*68
EST: 2024-12-10 19:36:14 $GPVTG,,T,,M,0.024,N,0.045,K,A*24
EST: 2024-12-10 19:36:14 $GPGGA,003614.00,4047.04754,N,07412.29340,W,1,07,1.82,48.0,M,-34.4,M,,*59
EST: 2024-12-10 19:36:14 $GPGSA,A,3,22,14,17,19,03,06,30,,,,,,3.36,1.82,2.83*0B
EST: 2024-12-10 19:36:14 $GPGSV,4,1,15,02,,,31,03,29,110,34,04,,,26,06,21,214,35*73
EST: 2024-12-10 19:36:14 $GPGSV,4,2,15,14,87,134,42,17,65,307,40,19,37,275,38,20,,,26*45
EST: 2024-12-10 19:36:14 $GPGSV,4,3,15,21,,,27,22,68,316,38,23,,,26,24,,,26*4A
EST: 2024-12-10 19:36:14 $GPGSV,4,4,15,30,25,200,33,46,37,214,39,48,20,242,40*4E
EST: 2024-12-10 19:36:14 $GPGLL,4047.04754,N,07412.29340,W,003614.00,A,A*72
EST: 2024-12-10 19:36:14 $GPRMC,003615.00,A,4047.04773,N,07412.29332,W,0.032,,111224,,,A*6E
EST: 2024-12-10 19:36:14 $GPVTG,,T,,M,0.032,N,0.059,K,A*2E
EST: 2024-12-10 19:36:14 $GPGGA,003615.00,4047.04773,N,07412.29332,W,1,07,1.82,47.7,M,-34.4,M,,*50
EST: 2024-12-10 19:36:14 $GPGSA,A,3,22,14,17,19,03,06,30,,,,,,3.36,1.82,2.83*0B
EST: 2024-12-10 19:36:14 $GPGSV,4,1,15,02,,,37,03,29,110,34,04,,,26,06,21,214,36*76
EST: 2024-12-10 19:36:14 $GPGSV,4,2,15,14,87,134,42,17,65,307,39,19,37,275,40,20,,,26*44
EST: 2024-12-10 19:36:14 $GPGSV,4,3,15,21,,,27,22,68,316,42,23,,,26,24,,,32*42
EST: 2024-12-10 19:36:14 $GPGSV,4,4,15,30,25,200,33,46,37,214,37,48,20,242,39*4E
EST: 2024-12-10 19:36:14 $GPGLL,4047.04773,N,07412.29332,W,003615.00,A,A*73
EST: 2024-12-10 19:36:14 $GPRMC,003616.00,A,4047.04794,N,07412.29330,W,0.061,,111224,,,A*60
EST: 2024-12-10 19:36:14 $GPVTG,,T,,M,0.061,N,0.112,K,A*26
EST: 2024-12-10 19:36:14 $GPGGA,003616.00,4047.04794,N,07412.29330,W,1,07,1.82,47.4,M,-34.4,M,,*5B
EST: 2024-12-10 19:36:14 $GPGSA,A,3,22,14,17,19,03,06,30,,,,,,3.36,1.82,2.83*0B
EST: 2024-12-10 19:36:14 $GP
EST: 2024-12-10 19:36:18 GSV,4,1,15,02,,,33,03,29,110,33,04,,,26,06,21,214,38*7B
EST: 2024-12-10 19:36:18 $GPGSV,4,2,15,14,87,134,40,17,65,307,40,19,37,275,39,20,,,26*46
EST: 2024-12-10 19:36:18 $GPGSV,4,3,15,21,,,23,22,68,316,41,23,,,26,24,,,30*47
EST: 2024-12-10 19:36:18 $GPGSV,4,4,15,30,25,200,33,46,37,214,34,48,20,242,38*4C
EST: 2024-12-10 19:36:18 $GPGLL,4047.04794,N,07412.29330,W,003616.00,A,A*7B
EST: 2024-12-10 19:36:18 $GPRMC,003617.00,A,4047.04817,N,07412.29325,W,0.091,,111224,,,A*6E
EST: 2024-12-10 19:36:18 $GPVTG,,T,,M,0.091,N,0.169,K,A*25
EST: 2024-12-10 19:36:18 $GPGGA,003617.00,4047.04817,N,07412.29325,W,1,07,1.82,47.1,M,-34.4,M,,*5F
EST: 2024-12-10 19:36:18 $GPGSA,A,3,22,14,17,19,03,06,30,,,,,,3.36,1.82,2.83*0B
EST: 2024-12-10 19:36:18 $GPGSV,4,1,15,02,,,33,03,29,110,34,04,,,25,06,21,214,38*7F
EST: 2024-12-10 19:36:18 $GPGSV,4,2,15,14,87,134,40,17,65,307,39,19,37,275,39,20,,,25*4B
EST: 2024-12-10 19:36:18 $GPGSV,4,3,15,21,,,21,22,68,316,41,23,,,27,24,,,29*4C
EST: 2024-12-10 19:36:18 $GPGSV,4,4,15,30,24,199,32,46,37,214,32,48,20,242,38*49
EST: 2024-12-10 19:36:18 $GPGLL,4047.04817,N,07412.29325,W,003617.00,A,A*7A
EST: 2024-12-10 19:36:18 $GPRMC,003618.00,A,4047.04838,N,07412.29320,W,0.012,,111224,,,A*62
EST: 2024-12-10 19:36:18 $GPVTG,,T,,M,0.012,N,0.022,K,A*20
EST: 2024-12-10 19:36:18 $GPGGA,003618.00,4047.04838,N,07412.29320,W,1,07,1.82,46.8,M,-34.4,M,,*50
EST: 2024-12-10 19:36:18 $GPGSA,A,3,22,14,17,19,03,06,30,,,,,,3.36,1.82,2.83*0B
EST: 2024-12-10 19:36:18 $GPGSV,4,1,15,02,,,35,03,29,110,34,04,,,25,06,21,214,37*76
EST: 2024-12-10 19:36:18 $GPGSV,4,2,15,14,87,134,40,17,65,307,39,19,37,275,39,20,,,26*48
EST: 2024-12-10 19:36:18 $GPGSV,4,3,15,21,,,17,22,68,316,41,23,,,27,24,,,28*48
EST: 2024-12-10 19:36:18 $GPGSV,4,4,15,30,24,199,32,46,37,214,38,48,20,242,38*43
EST: 2024-12-10 19:36:18 $GPGLL,4047.04838,N,07412.29320,W,003618.00,A,A*7D
EST: 2024-12-10 19:36:18 $GPRMC,003619.00,A,4047.04859,N,07412.29315,W,0.039,,111224,,,A*6B
EST: 2024-12-10 19:36:18 $GPVTG,,T,,M,0.039,N,0.073,K,A*2D
EST: 2024-12-10 19:36:18 $GPGGA,003619.00,4047.04859,N,07412.29315,W,1,07,1.82,46.6,M,-34.4,M,,*5E
EST: 2024-12-10 19:36:18 $GPGSA,A,3,22,14,17,19,03,06,30,,,,,,3.36,1.82,2.83*0B
EST: 2024-12-10 19:36:18 $GPGSV,4,1,15,02,,,34,03,29,110,34,04,,,25,06,21,214,39*79
EST: 2024-12-10 19:36:18 $GPGSV,4,2,15,14,87,134,38,17,65,307,41,19,37,275,40,20,,,26*46
EST: 2024-12-10 19:36:18 $GPGSV,4,3,15,21,,,24,22,68,316,41,23,,,26,24,,,31*41
EST: 2024-12-10 19:36:18 $GPGSV,4,4,15,30,24,199,36,46,37,214,36,48,20,242,36*47
EST: 2024-12-10 19:36:18 $GPGLL,4047.04859,N,07412.29315,W,003619.00,A,A*7D
EST: 2024-12-10 19:36:18 $GPRMC,003620.00,A,4047.04883,N,07412.29311,W,0.036,,111224,,,A*6D
EST: 2024-12-10 19:36:18 $GPVTG,,T,,M,0.036,N,0.067,K,A*27
EST: 2024-12-10 19:36:18 $GPGGA,003620.00,4047.04883,N,07412.29311,W,1,07,1.82,46.2,M,-34.4,M,,*53
EST: 2024-12-10 19:36:18 $GPGSA,A,3,22,
EST: 2024-12-10 19:36:22 14,17,19,03,06,30,,,,,,3.36,1.82,2.83*0B
EST: 2024-12-10 19:36:22 $GPGSV,4,1,15,02,,,34,03,29,110,35,04,,,25,06,21,214,38*79
EST: 2024-12-10 19:36:22 $GPGSV,4,2,15,14,87,134,38,17,65,307,40,19,37,275,39,20,,,26*49
EST: 2024-12-10 19:36:22 $GPGSV,4,3,15,21,,,27,22,68,316,40,23,,,27,24,,,31*42
EST: 2024-12-10 19:36:22 $GPGSV,4,4,15,30,24,199,34,46,37,214,35,48,20,242,37*47
EST: 2024-12-10 19:36:22 $GPGLL,4047.04883,N,07412.29311,W,003620.00,A,A*74
EST: 2024-12-10 19:36:22 $GPRMC,003621.00,A,4047.04907,N,07412.29307,W,0.053,,111224,,,A*65
EST: 2024-12-10 19:36:22 $GPVTG,,T,,M,0.053,N,0.099,K,A*25
EST: 2024-12-10 19:36:22 $GPGGA,003621.00,4047.04907,N,07412.29307,W,1,07,1.82,45.7,M,-34.4,M,,*5E
EST: 2024-12-10 19:36:22 $GPGSA,A,3,22,14,17,19,03,06,30,,,,,,3.36,1.82,2.83*0B
EST: 2024-12-10 19:36:22 $GPGSV,4,1,15,02,,,34,03,29,110,35,04,,,26,06,21,214,38*7A
EST: 2024-12-10 19:36:22 $GPGSV,4,2,15,14,87,134,38,17,65,307,40,19,37,275,39,20,,,26*49
EST: 2024-12-10 19:36:22 $GPGSV,4,3,15,21,,,29,22,68,316,40,23,,,27,24,,,32*4F
EST: 2024-12-10 19:36:22 $GPGSV,4,4,15,30,24,199,33,46,37,214,34,48,20,242,37*41
EST: 2024-12-10 19:36:22 $GPGLL,4047.04907,N,07412.29307,W,003621.00,A,A*7F
EST: 2024-12-10 19:36:22 $GPRMC,003622.00,A,4047.04928,N,07412.29303,W,0.019,,111224,,,D*64
EST: 2024-12-10 19:36:22 $GPVTG,,T,,M,0.019,N,0.036,K,D*2B
EST: 2024-12-10 19:36:22 $GPGGA,003622.00,4047.04928,N,07412.29303,W,2,07,1.82,45.4,M,-34.4,M,,0000*54
EST: 2024-12-10 19:36:22 $GPGSA,A,3,22,14,17,19,03,06,30,,,,,,3.36,1.82,2.83*0B
EST: 2024-12-10 19:36:22 $GPGSV,4,1,15,02,,,34,03,29,110,35,04,,,26,06,21,214,38*7A
EST: 2024-12-10 19:36:22 $GPGSV,4,2,15,14,87,134,38,17,65,307,40,19,37,275,38,20,,,26*48
EST: 2024-12-10 19:36:22 $GPGSV,4,3,15,21,,,29,22,68,316,40,23,,,27,24,,,31*4C
EST: 2024-12-10 19:36:22 $GPGSV,4,4,15,30,24,199,33,46,37,214,33,48,20,242,37*46
EST: 2024-12-10 19:36:22 $GPGLL,4047.04928,N,07412.29303,W,003622.00,A,D*70
EST: 2024-12-10 19:36:22 $GPRMC,003623.00,A,4047.04954,N,07412.29299,W,0.047,,111224,,,D*67
EST: 2024-12-10 19:36:22 $GPVTG,,T,,M,0.047,N,0.088,K,D*25
EST: 2024-12-10 19:36:22 $GPGGA,003623.00,4047.04954,N,07412.29299,W,2,07,1.82,44.8,M,-34.4,M,,0000*51
EST: 2024-12-10 19:36:22 $GPGSA,A,3,22,14,17,19,03,06,30,,,,,,3.36,1.82,2.83*0B
EST: 2024-12-10 19:36:22 $GPGSV,4,1,15,02,,,34,03,29,110,35,04,,,26,06,21,214,38*7A
EST: 2024-12-10 19:36:22 $GPGSV,4,2,15,14,87,134,38,17,65,307,40,19,37,275,38,20,,,26*48
EST: 2024-12-10 19:36:22 $GPGSV,4,3,15,21,,,29,22,68,316,40,23,,,26,24,,,32*4E
EST: 2024-12-10 19:36:22 $GPGSV,4,4,15,30,24,199,33,46,37,214,33,48,20,242,37*46
EST: 2024-12-10 19:36:22 $GPGLL,4047.04954,N,07412.29299,W,003623.00,A,D*78
EST: 2024-12-10 19:36:22 $GPRMC,003624.00,A,4047.04978,N,07412.29295,W,0.033,,111224,,,D*61
EST: 2024-12-10 19:36:22 $GPVTG,,T,,M,0.033,N,0.060,K,D*20
EST: 2024-12-10 19:36:22 $GPGGA,003624.00,4047.04978,N,07412.
EST: 2024-12-10 19:36:26 29295,W,2,07,1.82,44.3,M,-34.4,M,,0000*5F
EST: 2024-12-10 19:36:26 $GPGSA,A,3,22,14,17,19,03,06,30,,,,,,3.36,1.82,2.83*0B
EST: 2024-12-10 19:36:26 $GPGSV,4,1,15,02,,,34,03,29,110,35,04,,,26,06,21,214,38*7A
EST: 2024-12-10 19:36:26 $GPGSV,4,2,15,14,87,134,38,17,65,307,40,19,37,275,38,20,,,26*48
EST: 2024-12-10 19:36:26 $GPGSV,4,3,15,21,,,29,22,68,316,40,23,,,26,24,,,31*4D
EST: 2024-12-10 19:36:26 $GPGSV,4,4,15,30,24,199,33,46,37,214,33,48,20,242,38*49
EST: 2024-12-10 19:36:26 $GPGLL,4047.04978,N,07412.29295,W,003624.00,A,D*7D
EST: 2024-12-10 19:36:26 $GPRMC,003625.00,A,4047.05017,N,07412.29294,W,0.102,,111224,,,D*63
EST: 2024-12-10 19:36:26 $GPVTG,,T,,M,0.102,N,0.189,K,D*25
EST: 2024-12-10 19:36:26 $GPGGA,003625.00,4047.05017,N,07412.29294,W,2,07,1.82,43.2,M,-34.4,M,,0000*58
EST: 2024-12-10 19:36:26 $GPGSA,A,3,22,14,17,19,03,06,30,,,,,,3.36,1.82,2.83*0B
EST: 2024-12-10 19:36:26 $GPGSV,4,1,15,02,,,34,03,29,110,34,04,,,25,06,21,214,36*76
EST: 2024-12-10 19:36:26 $GPGSV,4,2,15,14,87,134,40,17,65,307,39,19,37,275,38,20,,,26*49
EST: 2024-12-10 19:36:26 $GPGSV,4,3,15,21,,,21,22,68,316,42,23,,,26,24,,,31*47
EST: 2024-12-10 19:36:26 $GPGSV,4,4,15,30,24,199,34,46,37,214,32,48,20,242,41*41
EST: 2024-12-10 19:36:26 $GPGLL,4047.05017,N,07412.29294,W,003625.00,A,D*7C
EST: 2024-12-10 19:36:26 $GPRMC,003626.00,A,4047.05032,N,07412.29293,W,0.081,,111224,,,D*6A
EST: 2024-12-10 19:36:26 $GPVTG,,T,,M,0.081,N,0.150,K,D*2B
EST: 2024-12-10 19:36:26 $GPGGA,003626.00,4047.05032,N,07412.29293,W,2,07,1.82,42.9,M,-34.4,M,,0000*51
EST: 2024-12-10 19:36:26 $GPGSA,A,3,22,14,17,19,03,06,30,,,,,,3.36,1.82,2.83*0B
EST: 2024-12-10 19:36:26 $GPGSV,4,1,15,02,,,32,03,29,110,33,04,,,25,06,21,214,38*79
EST: 2024-12-10 19:36:26 $GPGSV,4,2,15,14,87,134,41,17,65,307,39,19,37,275,38,20,,,26*48
EST: 2024-12-10 19:36:26 $GPGSV,4,3,15,21,,,22,22,68,316,41,23,,,26,24,,,30*46
EST: 2024-12-10 19:36:26 $GPGSV,4,4,15,30,24,199,34,46,37,214,36,48,20,242,40*44
EST: 2024-12-10 19:36:26 $GPGLL,4047.05032,N,07412.29293,W,003626.00,A,D*7F
EST: 2024-12-10 19:36:26 $GPRMC,003627.00,A,4047.05030,N,07412.29302,W,0.020,,111224,,,D*6B
EST: 2024-12-10 19:36:26 $GPVTG,,T,,M,0.020,N,0.037,K,D*20
EST: 2024-12-10 19:36:26 $GPGGA,003627.00,4047.05030,N,07412.29302,W,2,09,0.92,43.2,M,-34.4,M,,0000*5F
EST: 2024-12-10 19:36:26 $GPGSA,A,3,22,14,17,19,02,03,06,30,24,,,,1.53,0.92,1.23*07
EST: 2024-12-10 19:36:26 $GPGSV,4,1,15,02,38,048,32,03,29,110,33,04,,,26,06,21,214,37*42
EST: 2024-12-10 19:36:26 $GPGSV,4,2,15,14,87,134,42,17,65,307,39,19,37,275,38,20,,,26*4B
EST: 2024-12-10 19:36:26 $GPGSV,4,3,15,21,,,25,22,68,316,41,23,,,27,24,07,323,30*75
EST: 2024-12-10 19:36:26 $GPGSV,4,4,15,30,24,199,33,46,37,214,36,48,20,242,38*4C
EST: 2024-12-10 19:36:26 $GPGLL,4047.05030,N,07412.29302,W,003627.00,A,D*75
EST: 2024-12-10 19:36:26 $GPRMC,003628.00,A,4047.05034,N,07412.29298,W,0.051,,111224,,,D*
EST: 2024-12-10 19:36:29 64
EST: 2024-12-10 19:36:29 $GPVTG,,T,,M,0.051,N,0.095,K,D*2E
EST: 2024-12-10 19:36:29 $GPGGA,003628.00,4047.05034,N,07412.29298,W,2,09,0.92,43.3,M,-34.4,M,,0000*57
EST: 2024-12-10 19:36:29 $GPGSA,A,3,22,14,17,19,02,03,06,30,24,,,,1.53,0.92,1.23*07
EST: 2024-12-10 19:36:29 $GPGSV,4,1,15,02,38,048,32,03,29,110,27,04,,,26,06,21,214,31*41
EST: 2024-12-10 19:36:29 $GPGSV,4,2,15,14,87,134,40,17,65,307,38,19,37,275,36,20,,,26*46
EST: 2024-12-10 19:36:29 $GPGSV,4,3,15,21,,,32,22,68,316,40,23,,,26,24,07,323,30*73
EST: 2024-12-10 19:36:29 $GPGSV,4,4,15,30,24,199,34,46,37,214,38,48,20,242,40*4A
EST: 2024-12-10 19:36:29 $GPGLL,4047.05034,N,07412.29298,W,003628.00,A,D*7C
EST: 2024-12-10 19:36:29 $GPRMC,003629.00,A,4047.05030,N,07412.29305,W,0.119,,111224,,,D*69
EST: 2024-12-10 19:36:29 $GPVTG,,T,,M,0.119,N,0.220,K,D*2F
EST: 2024-12-10 19:36:29 $GPGGA,003629.00,4047.05030,N,07412.29305,W,2,09,0.92,43.6,M,-34.4,M,,0000*52
EST: 2024-12-10 19:36:29 $GPGSA,A,3,22,14,17,19,02,03,06,30,24,,,,1.53,0.92,1.23*07
