$GPRMC,000750.00,A,4047.05116,N,07412.29253,W,0.044,,100324,,,D*6A
$GPVTG,,T,,M,0.044,N,0.081,K,D*2F
$GPGGA,000750.00,4047.05116,N,07412.29253,W,2,10,0.89,51.0,M,-34.4,M,,0000*5E
$GPGSA,A,3,19,05,29,11,25,12,20,09,46,06,,,1.61,0.89,1.34*0E
$GPGSV,4,1,13,04,00,026,,05,41,228,41,06,40,072,30,09,25,056,38*71
$GPGSV,4,2,13,11,69,023,34,12,36,244,34,13,02,172,,19,21,135,25*78
$GPGSV,4,3,13,20,80,251,39,25,29,282,33,29,14,314,34,46,17,245,36*73
$GPGSV,4,4,13,48,20,242,*41
$GPGLL,4047.05116,N,07412.29253,W,000750.00,A,D*77
$GPTXT,01,01,02,u-blox ag - www.u-blox.com*50
$GPTXT,01,01,02,HW  UBX-G70xx   00070000 FF7FFFFFo*69
$GPTXT,01,01,02,ROM CORE 1.00 (59842) Jun 27 2012 17:43:52*59
$GPTXT,01,01,02,PROTVER 14.00*1E
$GPTXT,01,01,02,ANTSUPERV=AC SD PDoS SR*20
$GPTXT,01,01,02,ANTSTATUS=OK*3B
$GPTXT,01,01,02,LLC FFFFFFFF-FFFFFFFF-FFFFFFFF-FFFFFFFF-FFFFFFFD*2C
$GPRMC,000751.00,A,4047.05124,N,07412.29262,W,0.080,,100324,,,D*60
$GPVTG,,T,,M,0.080,N,0.148,K,D*23
$GPGGA,000751.00,4047.05124,N,07412.29262,W,2,10,0.89,51.2,M,-34.4,M,,0000*5E
$GPGSA,A,3,19,05,29,11,25,12,20,09,46,06,,,1.61,0.89,1.34*0E
$GPGSV,4,1,13,04,00,026,,05,41,228,42,06,40,072,29,09,25,056,38*7A
$GPGSV,4,2,13,11,69,023,34,12,36,244,33,13,02,172,,19,21,135,25*7F
$GPGSV,4,3,13,20,80,251,39,25,29,282,34,29,14,314,34,46,17,245,36*74
$GPGSV,4,4,13,48,20,242,*41
$GPGLL,4047.05124,N,07412.29262,W,000751.00,A,D*75
$GPRMC,000752.00,A,4047.05131,N,07412.29267,W,0.055,,100324,,,D*6A
$GPVTG,,T,,M,0.055,N,0.102,K,D*25
$GPGGA,000752.00,4047.05131,N,07412.29267,W,2,10,0.93,51.3,M,-34.4,M,,0000*56
$GPGSA,A,3,19,05,29,11,25,12,20,09,46,06,,,1.64,0.93,1.35*01
$GPGSV,4,1,13,04,00,026,,05,41,228,42,06,40,072,30,09,25,056,38*72
$GPGSV,4,2,13,11,69,023,34,12,36,244,34,13,02,172,,19,21,135,23*7E
$GPGSV,4,3,13,20,80,251,38,25,29,282,34,29,14,314,31,46,17,245,36*70
$GPGSV,4,4,13,48,20,242,*41
$GPGLL,4047.05131,N,07412.29267,W,000752.00,A,D*77
$GPRMC,000753.00,A,4047.05136,N,07412.29273,W,0.064,,100324,,,D*6B
$GPVTG,,T,,M,0.064,N,0.119,K,D*2D
$GPGGA,000753.00,4047.05136,N,07412.29273,W,2,10,0.93,51.4,M,-34.4,M,,0000*52
$GPGSA,A,3,19,05,29,11,25,12,20,09,46,06,,,1.64,0.93,1.35*01
$GPGSV,4,1,13,04,00,026,,05,41,228,42,06,40,072,29,09,25,056,39*7B
$GPGSV,4,2,13,11,69,023,34,12,36,244,34,13,02,172,,19,21,135,22*7F
$GPGSV,4,3,13,20,80,251,38,25,29,282,34,29,14,314,31,46,17,245,36*70
$GPGSV,4,4,13,48,20,242,*41
$GPGLL,4047.05136,N,07412.29273,W,000753.00,A,D*74
$GPRMC,000754.00,A,4047.05141,N,07412.29278,W,0.057,,100324,,,D*67
$GPVTG,,T,,M,0.057,N,0.105,K,D*20
$GPGGA,000754.00,4047.05141,N,07412.29278,W,2,10,0.93,51.5,M,-34.4,M,,0000*5F
$GPGSA,A,3,19,05,29,11,25,12,20,09,46,06,,,1.64,0.93,1.35*01
$GPGSV,4,1,13,04,00,026,,05,41,228,42,06,40,072,27,09,25,056,39*75
$GPGSV,4,2,13,11,69,023,35,12,36,244,35,13,02,172,,19,21,135,22*7F
$GPGSV,4,3,13,20,80,251,38,25,29,282,33,29,14,314,33,46,17,245,35*76
$GPGSV,4,4,13,48,20,242,*41
$GPGLL,4047.05141,N,07412.29278,W,000754.00,A,D*78
$GPRMC,000755.00,A,4047.05147,N,07412.29286,W,0.119,,100324,,,D*6A
$GPVTG,,T,,M,0.119,N,0.220,K,D*2F
$GPGGA,000755.00,4047.05147,N,07412.29286,W,2,10,0.93,51.7,M,-34.4,M,,0000*5B
$GPGSA,A,3,19,05,29,11,25,12,20,09,46,06,,,1.64,0.93,1.35*01
$GPGSV,4,1,13,04,00,026,,05,41,228,42,06,40,072,26,09,25,056,39*74
$GPGSV,4,2,13,11,69,023,35,12,36,244,35,13,02,172,,19,21,135,22*7F
$GPGSV,4,3,13,20,80,251,38,25,29,282,33,29,14,314,33,46,17,245,35*76
$GPGSV,4,4,13,48,20,242,*41
$GPGLL,4047.05147,N,07412.29286,W,000755.00,A,D*7E
$GPRMC,000756.00,A,4047.05152,N,07412.29293,W,0.111,,100324,,,D*61
$GPVTG,,T,,M,0.111,N,0.205,K,D*20
$GPGGA,000756.00,4047.05152,N,07412.29293,W,2,10,0.93,51.8,M,-34.4,M,,0000*57
$GPGSA,A,3,19,05,29,11,25,12,20,09,46,06,,,1.64,0.93,1.35*01
$GPGSV,4,1,13,04,00,026,,05,41,228,42,06,40,072,26,09,25,056,39*74
$GPGSV,4,2,13,11,69,023,35,12,36,244,35,13,02,172,,19,21,135,23*7E
$GPGSV,4,3,13,20,80,251,38,25,29,282,33,29,14,314,33,46,17,245,35*76
$GPGSV,4,4,13,48,20,242,*41
$GPGLL,4047.05152,N,07412.29293,W,000756.00,A,D*7D
$GPRMC,000757.00,A,4047.05164,N,07412.29301,W,0.054,,100324,,,D*6F
$GPVTG,,T,,M,0.054,N,0.099,K,D*27
$GPGGA,000757.00,4047.05164,N,07412.29301,W,2,10,0.89,52.2,M,-34.4,M,,0000*5B
$GPGSA,A,3,19,05,29,11,25,12,20,09,46,06,,,1.61,0.89,1.34*0E
$GPGSV,4,1,13,04,00,026,,05,41,228,42,06,40,072,28,09,25,056,39*7A
$GPGSV,4,2,13,11,69,023,35,12,36,244,34,13,02,172,,19,21,135,22*7E
$GPGSV,4,3,13,20,80,251,40,25,29,282,33,29,14,314,31,46,17,245,35*7B
$GPGSV,4,4,13,48,20,242,*41
$GPGLL,4047.05164,N,07412.29301,W,000757.00,A,D*73
$GPRMC,000758.00,A,4047.05161,N,07412.29300,W,0.020,,100324,,,D*67
$GPVTG,,T,,M,0.020,N,0.038,K,D*2F
$GPGGA,000758.00,4047.05161,N,07412.29300,W,2,10,0.93,52.0,M,-34.4,M,,0000*59
$GPGSA,A,3,19,05,29,11,25,12,20,09,46,06,,,1.64,0.93,1.35*01
$GPGSV,4,1,13,04,00,026,,05,41,228,42,06,40,072,27,09,25,056,39*75
$GPGSV,4,2,13,11,69,023,36,12,36,244,34,13,02,172,,19,21,135,21*7E
$GPGSV,4,3,13,20,80,251,39,25,29,282,33,29,14,314,32,46,17,245,35*76
$GPGSV,4,4,13,48,20,242,*41
$GPGLL,4047.05161,N,07412.29300,W,000758.00,A,D*78
$GPRMC,000759.00,A,4047.05153,N,07412.29297,W,0.113,,100324,,,D*69
$GPVTG,,T,,M,0.113,N,0.210,K,D*26
$GPGGA,000759.00,4047.05153,N,07412.29297,W,2,10,0.93,51.9,M,-34.4,M,,0000*5C
$GPGSA,A,3,19,05,29,11,25,12,20,09,46,06,,,1.64,0.93,1.35*01
$GPGSV,4,1,13,04,00,026,,05,41,228,41,06,40,072,26,09,25,056,39*77
$GPGSV,4,2,13,11,69,023,36,12,36,244,33,13,02,172,,19,21,135,19*72
$GPGSV,4,3,13,20,80,251,38,25,29,282,33,29,14,314,31,46,17,245,34*75
$GPGSV,4,4,13,48,20,242,*41
$GPGLL,4047.05153,N,07412.29297,W,000759.00,A,D*77
$GPRMC,000800.00,A,4047.05142,N,07412.29293,W,0.036,,100324,,,D*68
$GPVTG,,T,,M,0.036,N,0.066,K,D*23
$GPGGA,000800.00,4047.05142,N,07412.29293,W,2,10,0.93,51.7,M,-34.4,M,,0000*55
$GPGSA,A,3,19,05,29,11,25,12,20,09,46,06,,,1.64,0.93,1.35*01
$GPGSV,4,1,13,04,00,026,,05,41,228,41,06,40,072,26,09,25,056,39*77
$GPGSV,4,2,13,11,69,023,36,12,36,244,33,13,02,172,,19,21,135,18*73
$GPGSV,4,3,13,20,80,251,38,25,29,282,32,29,14,314,31,46,17,245,34*74
$GPGSV,4,4,13,48,20,242,*41
$GPGLL,4047.05142,N,07412.29293,W,000800.00,A,D*70
$GPRMC,000801.00,A,4047.05122,N,07412.29287,W,0.095,,100324,,,D*63
$GPVTG,,T,,M,0.095,N,0.176,K,D*2A
$GPGGA,000801.00,4047.05122,N,07412.29287,W,2,10,0.93,51.2,M,-34.4,M,,0000*52
$GPGSA,A,3,19,05,29,11,25,12,20,09,46,06,,,1.64,0.93,1.35*01
$GPGSV,4,1,13,04,00,026,,05,41,228,41,06,40,072,24,09,25,056,39*75
$GPGSV,4,2,13,11,69,023,37,12,36,244,34,13,02,172,,19,21,135,19*74
$GPGSV,4,3,13,20,80,251,39,25,29,282,32,29,14,314,35,46,17,245,35*70
$GPGSV,4,4,13,48,20,242,*41
$GPGLL,4047.05122,N,07412.29287,W,000801.00,A,D*72
$GPRMC,000802.00,A,4047.05104,N,07412.29280,W,0.070,,100324,,,D*68
$GPVTG,,T,,M,0.070,N,0.129,K,D*2B
$GPGGA,000802.00,4047.05104,N,07412.29280,W,2,10,0.93,50.7,M,-34.4,M,,0000*56
$GPGSA,A,3,19,05,29,11,25,12,20,09,46,06,,,1.64,0.93,1.35*01
$GPGSV,4,1,13,04,00,026,,05,41,228,41,06,40,072,24,09,25,056,39*75
$GPGSV,4,2,13,11,69,023,37,12,36,244,34,13,02,172,,19,21,135,20*7E
$GPGSV,4,3,13,20,80,251,39,25,29,282,32,29,14,314,31,46,17,245,35*74
$GPGSV,4,4,13,48,20,242,*41
$GPGLL,4047.05104,N,07412.29280,W,000802.00,A,D*72
$GPRMC,000803.00,A,4047.05092,N,07412.29280,W,0.027,,100324,,,D*65
$GPVTG,,T,,M,0.027,N,0.051,K,D*27
$GPGGA,000803.00,4047.05092,N,07412.29280,W,2,10,0.93,50.5,M,-34.4,M,,0000*5B
$GPGSA,A,3,19,05,29,11,25,12,20,09,46,06,,,1.64,0.93,1.35*01
$GPGSV,4,1,13,04,00,026,,05,41,228,41,06,40,072,24,09,25,056,39*75
$GPGSV,4,2,13,11,69,023,36,12,36,244,33,13,02,172,,19,21,135,20*78
$GPGSV,4,3,13,20,80,251,38,25,29,282,31,29,14,314,30,46,17,245,35*77
$GPGSV,4,4,13,48,20,242,*41
$GPGLL,4047.05092,N,07412.29280,W,000803.00,A,D*7D
$GPRMC,000804.00,A,4047.05083,N,07412.29279,W,0.073,,100324,,,D*65
$GPVTG,,T,,M,0.073,N,0.135,K,D*25
$GPGGA,000804.00,4047.05083,N,07412.29279,W,2,10,0.93,50.2,M,-34.4,M,,0000*5D
$GPGSA,A,3,19,05,29,11,25,12,20,09,46,06,,,1.64,0.93,1.35*01
$GPGSV,4,1,13,04,00,026,,05,41,228,41,06,40,072,25,09,25,056,38*75
$GPGSV,4,2,13,11,69,023,36,12,36,244,36,13,02,172,,19,21,135,20*7D
$GPGSV,4,3,13,20,80,251,39,25,29,282,33,29,14,314,35,46,17,245,35*71
$GPGSV,4,4,13,48,20,242,*41
$GPGLL,4047.05083,N,07412.29279,W,000804.00,A,D*7C
$GPRMC,000805.00,A,4047.05069,N,07412.29276,W,0.033,,100324,,,D*6B
$GPVTG,,T,,M,0.033,N,0.062,K,D*22
$GPGGA,000805.00,4047.05069,N,07412.29276,W,2,10,0.93,49.9,M,-34.4,M,,0000*54
$GPGSA,A,3,19,05,29,11,25,12,20,09,46,06,,,1.64,0.93,1.35*01
$GPGSV,4,1,13,04,00,026,,05,41,228,42,06,40,072,26,09,25,056,38*75
$GPGSV,4,2,13,11,69,023,36,12,36,244,35,13,02,172,,19,21,135,21*7F
$GPGSV,4,3,13,20,80,251,39,25,29,282,35,29,14,314,36,46,17,245,38*79
$GPGSV,4,4,13,48,20,242,*41
$GPGLL,4047.05069,N,07412.29276,W,000805.00,A,D*76
$GPRMC,000806.00,A,4047.05063,N,07412.29280,W,0.066,,100324,,,D*6B
$GPVTG,,T,,M,0.066,N,0.123,K,D*26
$GPGGA,000806.00,4047.05063,N,07412.29280,W,2,10,0.93,49.5,M,-34.4,M,,0000*58
$GPGSA,A,3,19,05,29,11,25,12,20,09,46,06,,,1.64,0.93,1.35*01
$GPGSV,4,1,13,04,00,026,,05,41,228,42,06,40,072,27,09,25,056,38*74
$GPGSV,4,2,13,11,69,023,36,12,36,244,32,13,02,172,,19,21,135,21*78
$GPGSV,4,3,13,20,80,251,39,25,29,282,35,29,14,314,36,46,17,245,38*79
$GPGSV,4,4,13,48,20,242,*41
$GPGLL,4047.05063,N,07412.29280,W,000806.00,A,D*76
$GPRMC,000807.00,A,4047.05058,N,07412.29282,W,0.009,,100324,,,D*69
$GPVTG,,T,,M,0.009,N,0.017,K,D*29
$GPGGA,000807.00,4047.05058,N,07412.29282,W,2,10,1.36,49.2,M,-34.4,M,,0000*5A
$GPGSA,A,3,19,05,29,11,25,12,20,09,46,06,,,2.12,1.36,1.62*0F
$GPGSV,4,1,13,04,00,026,,05,41,228,41,06,40,072,28,09,25,056,38*78
$GPGSV,4,2,13,11,69,023,36,12,36,244,30,13,02,172,,19,21,135,21*7A
$GPGSV,4,3,13,20,80,251,39,25,29,282,34,29,14,314,36,46,17,245,38*78
$GPGSV,4,4,13,48,20,242,*41
$GPGLL,4047.05058,N,07412.29282,W,000807.00,A,D*7D
$GPRMC,000808.00,A,4047.05053,N,07412.29288,W,0.036,,100324,,,D*6B
$GPVTG,,T,,M,0.036,N,0.067,K,D*22
$GPGGA,000808.00,4047.05053,N,07412.29288,W,2,10,1.25,49.0,M,-34.4,M,,0000*54
$GPGSA,A,3,19,05,29,11,25,12,20,09,46,06,,,2.02,1.25,1.58*05
$GPGSV,4,1,13,04,00,026,,05,41,228,42,06,40,072,29,09,25,056,38*7A
$GPGSV,4,2,13,11,69,023,36,12,36,244,30,13,02,172,,19,21,135,21*7A
$GPGSV,4,3,13,20,80,251,39,25,29,282,34,29,14,314,36,46,17,245,38*78
$GPGSV,4,4,13,48,20,242,*41
$GPGLL,4047.05053,N,07412.29288,W,000808.00,A,D*73
$GPRMC,000809.00,A,4047.05046,N,07412.29294,W,0.034,,100324,,,D*61
$GPVTG,,T,,M,0.034,N,0.062,K,D*25
$GPGGA,000809.00,4047.05046,N,07412.29294,W,2,10,1.25,48.9,M,-34.4,M,,0000*54
$GPGSA,A,3,19,05,29,11,25,12,20,09,46,06,,,2.02,1.25,1.58*05
$GPGSV,4,1,13,04,00,026,,05,41,228,42,06,40,072,29,09,25,056,38*7A
$GPGSV,4,2,13,11,69,023,36,12,36,244,29,13,02,172,,19,21,135,22*71
$GPGSV,4,3,13,20,80,251,39,25,29,282,34,29,14,314,36,46,17,245,37*77
$GPGSV,4,4,13,48,20,242,*41
$GPGLL,4047.05046,N,07412.29294,W,000809.00,A,D*7B
$GPRMC,000810.00,A,4047.05035,N,07412.29292,W,0.070,,100324,,,D*6B
$GPVTG,,T,,M,0.070,N,0.130,K,D*23
$GPGGA,000810.00,4047.05035,N,07412.29292,W,2,10,1.36,48.6,M,-34.4,M,,0000*53
$GPGSA,A,3,19,05,29,11,25,12,20,09,46,06,,,2.12,1.36,1.62*0F
$GPGSV,4,1,13,04,00,026,,05,41,228,41,06,40,072,28,09,25,056,38*78
$GPGSV,4,2,13,11,69,023,36,12,36,244,29,13,02,172,,19,21,135,22*71
$GPGSV,4,3,13,20,80,251,38,25,29,282,32,29,14,314,35,46,17,245,37*73
$GPGSV,4,4,13,48,20,242,*41
$GPGLL,4047.05035,N,07412.29292,W,000810.00,A,D*71
$GPRMC,000811.00,A,4047.05024,N,07412.29290,W,0.032,,100324,,,D*6E
$GPVTG,,T,,M,0.032,N,0.059,K,D*2B
$GPGGA,000811.00,4047.05024,N,07412.29290,W,2,10,1.36,48.4,M,-34.4,M,,0000*52
$GPGSA,A,3,19,05,29,11,25,12,20,09,46,06,,,2.12,1.36,1.62*0F
$GPGSV,4,1,13,04,00,026,,05,41,228,41,06,40,072,28,09,25,056,38*78
$GPGSV,4,2,13,11,69,023,36,12,36,244,30,13,02,172,,19,21,135,24*7F
$GPGSV,4,3,13,20,80,251,38,25,29,282,33,29,14,314,35,46,17,245,37*72
$GPGSV,4,4,13,48,20,242,*41
$GPGLL,4047.05024,N,07412.29290,W,000811.00,A,D*72
$GPRMC,000812.00,A,4047.05009,N,07412.29288,W,0.037,,100324,,,D*6E
$GPVTG,,T,,M,0.037,N,0.069,K,D*2D
$GPGGA,000812.00,4047.05009,N,07412.29288,W,2,10,1.36,48.1,M,-34.4,M,,0000*52
$GPGSA,A,3,19,05,29,11,25,12,20,09,46,06,,,2.12,1.36,1.62*0F
$GPGSV,3,1,12,05,41,228,41,06,40,072,29,09,25,056,38,11,69,023,37*75
$GPGSV,3,2,12,12,36,244,30,13,02,172,,19,21,135,23,20,80,251,38*72
$GPGSV,3,3,12,25,29,282,32,29,14,314,35,46,17,245,36,48,20,242,*79
$GPGLL,4047.05009,N,07412.29288,W,000812.00,A,D*77
$GPRMC,000813.00,A,4047.04992,N,07412.29286,W,0.039,,100324,,,D*65
$GPVTG,,T,,M,0.039,N,0.072,K,D*29
$GPGGA,000813.00,4047.04992,N,07412.29286,W,2,10,1.36,47.7,M,-34.4,M,,0000*5E
$GPGSA,A,3,19,05,29,11,25,12,20,09,46,06,,,2.12,1.36,1.62*0F
$GPGSV,3,1,12,05,41,228,42,06,40,072,28,09,25,056,38,11,69,023,37*77
$GPGSV,3,2,12,12,36,244,30,13,02,172,21,19,21,135,22,20,80,251,38*70
$GPGSV,3,3,12,25,29,282,36,29,14,314,35,46,17,245,34,48,20,242,*7F
$GPGLL,4047.04992,N,07412.29286,W,000813.00,A,D*72
$GPRMC,000814.00,A,4047.04974,N,07412.29284,W,0.061,,100324,,,D*65
$GPVTG,,T,,M,0.061,N,0.114,K,D*25
$GPGGA,000814.00,4047.04974,N,07412.29284,W,2,10,1.25,47.4,M,-34.4,M,,0000*52
$GPGSA,A,3,19,05,29,11,25,12,20,09,46,06,,,2.02,1.25,1.58*05
$GPGSV,3,1,12,05,41,228,42,06,40,072,29,09,25,056,37,11,69,023,38*76
$GPGSV,3,2,12,12,36,244,29,13,02,172,20,19,21,135,19,20,80,251,38*71
$GPGSV,3,3,12,25,29,282,37,29,14,314,35,46,17,245,35,48,20,242,*7F
$GPGLL,4047.04974,N,07412.29284,W,000814.00,A,D*7F
$GPRMC,000815.00,A,4047.04956,N,07412.29278,W,0.054,,100324,,,D*61
$GPVTG,,T,,M,0.054,N,0.099,K,D*27
$GPGGA,000815.00,4047.04956,N,07412.29278,W,2,10,1.36,47.1,M,-34.4,M,,0000*57
$GPGSA,A,3,19,05,29,11,25,12,20,09,46,06,,,2.12,1.36,1.62*0F
$GPGSV,3,1,12,05,41,228,41,06,40,072,28,09,25,056,38,11,69,023,37*74
$GPGSV,3,2,12,12,36,244,29,13,02,172,19,19,21,135,20,20,80,251,37*7E
$GPGSV,3,3,12,25,29,282,36,29,14,314,35,46,17,245,35,48,20,242,*7E
$GPGLL,4047.04956,N,07412.29278,W,000815.00,A,D*7D
$GPRMC,000816.00,A,4047.04941,N,07412.29271,W,0.043,,100324,,,D*6B
$GPVTG,,T,,M,0.043,N,0.080,K,D*29
$GPGGA,000816.00,4047.04941,N,07412.29271,W,2,10,1.36,46.9,M,-34.4,M,,0000*52
$GPGSA,A,3,19,05,29,11,25,12,20,09,46,06,,,2.12,1.36,1.62*0F
$GPGSV,3,1,12,05,41,228,42,06,40,072,28,09,25,056,38,11,69,023,37*77
$GPGSV,3,2,12,12,36,244,28,13,02,172,19,19,21,135,21,20,80,251,37*7E
$GPGSV,3,3,12,25,29,282,36,29,14,314,34,46,17,245,35,48,20,242,*7F
$GPGLL,4047.04941,N,07412.29271,W,000816.00,A,D*71
$GPRMC,000817.00,A,4047.04931,N,07412.29267,W,0.012,,100324,,,D*6E
$GPVTG,,T,,M,0.012,N,0.023,K,D*24
$GPGGA,000817.00,4047.04931,N,07412.29267,W,2,10,1.25,46.7,M,-34.4,M,,0000*5F
$GPGSA,A,3,19,05,29,11,25,12,20,09,46,06,,,2.02,1.25,1.58*05
$GPGSV,3,1,12,05,41,228,42,06,40,072,28,09,25,056,37,11,69,023,37*78
$GPGSV,3,2,12,12,36,244,27,13,02,172,17,19,21,135,24,20,80,251,37*7A
$GPGSV,3,3,12,25,29,282,36,29,14,314,35,46,17,245,36,48,20,242,*7D
$GPGLL,4047.04931,N,07412.29267,W,000817.00,A,D*70
$GPRMC,000818.00,A,4047.04924,N,07412.29264,W,0.029,,100324,,,D*6E
$GPVTG,,T,,M,0.029,N,0.053,K,D*2B
$GPGGA,000818.00,4047.04924,N,07412.29264,W,2,10,1.36,46.6,M,-34.4,M,,0000*54
$GPGSA,A,3,19,05,29,11,25,12,20,09,46,06,,,2.12,1.36,1.62*0F
$GPGSV,3,1,12,05,41,228,41,06,40,072,28,09,25,056,37,11,69,023,36*7A
$GPGSV,3,2,12,12,36,244,27,13,02,172,16,19,21,135,24,20,80,251,37*7B
$GPGSV,3,3,12,25,29,282,35,29,14,314,36,46,17,245,36,48,20,242,*7D
$GPGLL,4047.04924,N,07412.29264,W,000818.00,A,D*78
$GPRMC,000819.00,A,4047.04920,N,07412.29260,W,0.035,,100324,,,D*62
$GPVTG,,T,,M,0.035,N,0.065,K,D*23
$GPGGA,000819.00,4047.04920,N,07412.29260,W,2,10,1.36,46.5,M,-34.4,M,,0000*56
$GPGSA,A,3,19,05,29,11,25,12,20,09,46,06,,,2.12,1.36,1.62*0F
$GPGSV,3,1,12,05,41,228,41,06,40,072,26,09,25,056,38,11,69,024,36*7C
$GPGSV,3,2,12,12,36,244,26,13,02,172,14,19,21,135,22,20,80,251,37*7E
$GPGSV,3,3,12,25,29,282,35,29,14,314,36,46,17,245,37,48,20,242,*7C
$GPGLL,4047.04920,N,07412.29260,W,000819.00,A,D*79
$GPRMC,000820.00,A,4047.04916,N,07412.29256,W,0.022,,100324,,,D*6E
$GPVTG,,T,,M,0.022,N,0.041,K,D*23
$GPGGA,000820.00,4047.04916,N,07412.29256,W,2,10,1.36,46.4,M,-34.4,M,,0000*5D
$GPGSA,A,3,19,05,29,11,25,12,20,09,46,06,,,2.12,1.36,1.62*0F
$GPGSV,3,1,12,05,41,228,41,06,40,072,24,09,25,056,37,11,69,024,36*71
$GPGSV,3,2,12,12,36,244,26,13,02,172,12,19,21,135,21,20,80,251,36*7A
$GPGSV,3,3,12,25,29,282,34,29,14,314,35,46,17,245,35,48,20,242,*7C
$GPGLL,4047.04916,N,07412.29256,W,000820.00,A,D*73
$GPRMC,000821.00,A,4047.04918,N,07412.29254,W,0.035,,100324,,,D*65
$GPVTG,,T,,M,0.035,N,0.065,K,D*23
$GPGGA,000821.00,4047.04918,N,07412.29254,W,2,10,1.36,46.4,M,-34.4,M,,0000*50
$GPGSA,A,3,19,05,29,11,25,12,20,09,46,06,,,2.12,1.36,1.62*0F
$GPGSV,3,1,12,05,41,228,41,06,40,072,22,09,25,056,37,11,69,024,35*74
$GPGSV,3,2,12,12,36,244,25,13,03,172,12,19,21,135,20,20,80,251,37*78
$GPGSV,3,3,12,25,29,282,35,29,14,314,36,46,17,245,36,48,20,242,*7D
$GPGLL,4047.04918,N,07412.29254,W,000821.00,A,D*7E
$GPRMC,000822.00,A,4047.04921,N,07412.29252,W,0.026,,100324,,,D*68
$GPVTG,,T,,M,0.026,N,0.048,K,D*2E
$GPGGA,000822.00,4047.04921,N,07412.29252,W,2,10,1.36,46.4,M,-34.4,M,,0000*5F
$GPGSA,A,3,19,05,29,11,25,12,20,09,46,06,,,2.12,1.36,1.62*0F
$GPGSV,3,1,12,05,41,228,42,06,40,072,21,09,25,056,37,11,69,024,35*74
$GPGSV,3,2,12,12,36,244,25,13,03,172,10,19,21,135,20,20,80,251,36*7B
$GPGSV,3,3,12,25,29,282,34,29,14,314,36,46,17,245,36,48,20,242,*7C
$GPGLL,4047.04921,N,07412.29252,W,000822.00,A,D*71
$GPRMC,000823.00,A,4047.04918,N,07412.29248,W,0.022,,100324,,,D*6C
$GPVTG,,T,,M,0.022,N,0.042,K,D*20
$GPGGA,000823.00,4047.04918,N,07412.29248,W,2,10,1.36,46.2,M,-34.4,M,,0000*59
$GPGSA,A,3,19,05,29,11,25,12,20,09,46,06,,,2.12,1.36,1.62*0F
$GPGSV,3,1,12,05,41,228,42,06,40,072,22,09,25,056,37,11,69,024,36*74
$GPGSV,3,2,12,12,36,244,25,13,03,172,12,19,21,135,20,20,80,251,36*79
$GPGSV,3,3,12,25,29,282,33,29,14,314,33,46,17,245,37,48,20,242,*7F
$GPGLL,4047.04918,N,07412.29248,W,000823.00,A,D*71
$GPRMC,000824.00,A,4047.04919,N,07412.29248,W,0.005,,100324,,,D*6F
$GPVTG,,T,,M,0.005,N,0.010,K,D*22
$GPGGA,000824.00,4047.04919,N,07412.29248,W,2,10,1.36,46.2,M,-34.4,M,,0000*5F
$GPGSA,A,3,19,05,29,11,25,12,20,09,46,06,,,2.12,1.36,1.62*0F
$GPGSV,3,1,12,05,41,228,41,06,40,072,24,09,25,056,36,11,69,024,36*70
$GPGSV,3,2,12,12,36,244,27,13,03,172,12,19,21,135,19,20,80,251,37*70
$GPGSV,3,3,12,25,29,282,34,29,14,314,34,46,17,245,35,48,20,242,*7D
$GPGLL,4047.04919,N,07412.29248,W,000824.00,A,D*77
$GPRMC,000825.00,A,4047.04922,N,07412.29247,W,0.075,,100324,,,D*6E
$GPVTG,,T,,M,0.075,N,0.139,K,D*2F
$GPGGA,000825.00,4047.04922,N,07412.29247,W,2,10,1.37,46.2,M,-34.4,M,,0000*58
$GPGSA,A,3,19,05,29,11,25,12,20,09,46,06,,,2.12,1.37,1.62*0E
$GPGSV,3,1,12,05,41,228,41,06,40,072,27,09,25,056,36,11,69,024,36*73
$GPGSV,3,2,12,12,36,244,27,13,03,172,15,19,21,135,17,20,80,251,37*79
$GPGSV,3,3,12,25,29,282,33,29,14,314,34,46,17,245,36,48,20,242,*79
$GPGLL,4047.04922,N,07412.29247,W,000825.00,A,D*71
$GPRMC,000826.00,A,4047.04924,N,07412.29243,W,0.036,,100324,,,D*68
$GPVTG,,T,,M,0.036,N,0.066,K,D*23
$GPGGA,000826.00,4047.04924,N,07412.29243,W,2,10,1.37,46.0,M,-34.4,M,,0000*5B
$GPGSA,A,3,19,05,29,11,25,12,20,09,46,06,,,2.12,1.37,1.62*0E
$GPGSV,3,1,12,05,41,228,40,06,40,072,26,09,25,056,37,11,69,024,37*73
$GPGSV,3,2,12,12,36,244,30,13,03,172,16,19,21,135,15,20,80,251,37*7E
$GPGSV,3,3,12,25,29,282,32,29,14,314,33,46,17,245,36,48,20,242,*7F
$GPGLL,4047.04924,N,07412.29243,W,000826.00,A,D*70
$GPRMC,000827.00,A,4047.04922,N,07412.29239,W,0.003,,100324,,,D*64
$GPVTG,,T,,M,0.003,N,0.006,K,D*23
$GPGGA,000827.00,4047.04922,N,07412.29239,W,2,09,1.37,45.9,M,-34.4,M,,0000*53
$GPGSA,A,3,05,29,11,25,12,20,09,46,06,,,,2.12,1.37,1.62*06
$GPGSV,3,1,12,05,41,228,41,06,40,072,27,09,25,056,37,11,69,024,37*73
$GPGSV,3,2,12,12,36,244,29,13,03,172,15,19,21,135,,20,80,251,37*71
$GPGSV,3,3,12,25,29,282,32,29,14,314,33,46,17,245,35,48,20,242,*7C
$GPGLL,4047.04922,N,07412.29239,W,000827.00,A,D*7A
$GPRMC,000828.00,A,4047.04920,N,07412.29239,W,0.017,,100324,,,D*6C
$GPVTG,,T,,M,0.017,N,0.031,K,D*22
$GPGGA,000828.00,4047.04920,N,07412.29239,W,2,09,1.37,45.8,M,-34.4,M,,0000*5F
$GPGSA,A,3,05,29,11,25,12,20,09,46,06,,,,2.12,1.37,1.62*06
$GPGSV,3,1,12,05,41,228,40,06,40,072,26,09,25,056,35,11,69,024,36*70
$GPGSV,3,2,12,12,36,244,29,13,03,172,14,19,21,135,17,20,80,252,36*74
$GPGSV,3,3,12,25,29,282,32,29,14,314,31,46,17,245,35,48,20,242,*7E
$GPGLL,4047.04920,N,07412.29239,W,000828.00,A,D*77
$GPRMC,000829.00,A,4047.04921,N,07412.29239,W,0.072,,100324,,,D*6F
$GPVTG,,T,,M,0.072,N,0.134,K,D*25
$GPGGA,000829.00,4047.04921,N,07412.29239,W,2,09,1.40,45.8,M,-34.4,M,,0000*5F
$GPGSA,A,3,05,29,11,25,12,20,09,46,06,,,,2.14,1.40,1.62*00
$GPGSV,3,1,12,05,41,228,40,06,40,072,26,09,25,056,35,11,69,024,36*70
$GPGSV,3,2,12,12,36,244,28,13,03,172,14,19,21,135,16,20,80,252,36*74
$GPGSV,3,3,12,25,29,282,32,29,14,314,31,46,17,245,35,48,20,242,*7E
$GPGLL,4047.04921,N,07412.29239,W,000829.00,A,D*77
$GPRMC,000830.00,A,4047.04927,N,07412.29240,W,0.025,,100324,,,D*6D
$GPVTG,,T,,M,0.025,N,0.046,K,D*23
$GPGGA,000830.00,4047.04927,N,07412.29240,W,2,09,1.37,45.7,M,-34.4,M,,0000*50
$GPGSA,A,3,05,29,11,25,12,20,09,46,06,,,,2.12,1.37,1.62*06
$GPGSV,3,1,12,05,41,228,40,06,40,072,26,09,25,056,36,11,69,024,36*73
$GPGSV,3,2,12,12,36,244,29,13,03,172,14,19,21,135,15,20,80,252,36*76
$GPGSV,3,3,12,25,29,282,32,29,14,314,31,46,17,245,35,48,20,242,*7E
$GPGLL,4047.04927,N,07412.29240,W,000830.00,A,D*77
$GPRMC,000831.00,A,4047.04931,N,07412.29240,W,0.025,,100324,,,D*6B
$GPVTG,,T,,M,0.025,N,0.046,K,D*23
$GPGGA,000831.00,4047.04931,N,07412.29240,W,2,09,1.37,45.6,M,-34.4,M,,0000*57
$GPGSA,A,3,05,29,11,25,12,20,09,46,06,,,,2.12,1.37,1.62*06
$GPGSV,3,1,12,05,41,228,40,06,40,072,25,09,25,056,36,11,69,024,36*70
$GPGSV,3,2,12,12,36,244,28,13,03,172,14,19,21,135,14,20,80,252,36*76
$GPGSV,3,3,12,25,29,282,32,29,14,314,32,46,17,245,36,48,20,242,*7E
$GPGLL,4047.04931,N,07412.29240,W,000831.00,A,D*71
$GPRMC,000832.00,A,4047.04933,N,07412.29241,W,0.039,,100324,,,D*66
$GPVTG,,T,,M,0.039,N,0.072,K,D*29
$GPGGA,000832.00,4047.04933,N,07412.29241,W,2,09,1.37,45.4,M,-34.4,M,,0000*55
$GPGSA,A,3,05,29,11,25,12,20,09,46,06,,,,2.12,1.37,1.62*06
$GPGSV,3,1,12,05,41,228,40,06,40,072,24,09,25,056,36,11,69,024,37*70
$GPGSV,3,2,12,12,36,244,28,13,03,172,17,19,21,135,11,20,80,252,36*70
$GPGSV,3,3,12,25,29,282,32,29,14,314,32,46,17,245,35,48,20,242,*7D
$GPGLL,4047.04933,N,07412.29241,W,000832.00,A,D*71
$GPRMC,000833.00,A,4047.04927,N,07412.29236,W,0.100,,100324,,,D*69
$GPVTG,,T,,M,0.100,N,0.184,K,D*2A
$GPGGA,000833.00,4047.04927,N,07412.29236,W,2,10,0.93,45.2,M,-34.4,M,,0000*50
$GPGSA,A,3,19,05,29,11,25,12,20,09,46,06,,,1.64,0.93,1.34*00
$GPGSV,3,1,12,05,41,228,41,06,40,072,23,09,25,056,37,11,69,024,37*77
$GPGSV,3,2,12,12,36,244,28,13,03,172,17,19,21,135,14,20,80,252,37*74
$GPGSV,3,3,12,25,29,281,33,29,14,314,32,46,17,245,36,48,20,242,*7C
$GPGLL,4047.04927,N,07412.29236,W,000833.00,A,D*75
$GPRMC,000834.00,A,4047.04923,N,07412.29235,W,0.029,,100324,,,D*63
$GPVTG,,T,,M,0.029,N,0.054,K,D*2C
$GPGGA,000834.00,4047.04923,N,07412.29235,W,2,10,0.93,45.2,M,-34.4,M,,0000*50
$GPGSA,A,3,19,05,29,11,25,12,20,09,46,06,,,1.64,0.93,1.34*00
$GPGSV,3,1,12,05,41,228,41,06,40,072,22,09,25,056,37,11,69,024,37*76
$GPGSV,3,2,12,12,36,244,28,13,03,172,17,19,21,135,16,20,80,252,38*79
$GPGSV,3,3,12,25,29,281,33,29,14,314,33,46,17,245,36,48,20,242,*7D
$GPGLL,4047.04923,N,07412.29235,W,000834.00,A,D*75
$GPRMC,000835.00,A,4047.04917,N,07412.29231,W,0.010,,100324,,,D*6B
$GPVTG,,T,,M,0.010,N,0.019,K,D*2F
$GPGGA,000835.00,4047.04917,N,07412.29231,W,2,10,0.93,44.9,M,-34.4,M,,0000*58
$GPGSA,A,3,19,05,29,11,25,12,20,09,46,06,,,1.64,0.93,1.34*00
$GPGSV,3,1,12,05,41,228,41,06,40,072,21,09,25,056,38,11,69,024,37*7A
$GPGSV,3,2,12,12,36,244,29,13,03,172,17,19,21,135,15,20,80,252,37*74
$GPGSV,3,3,12,25,29,281,33,29,14,314,34,46,17,245,35,48,20,242,*79
$GPGLL,4047.04917,N,07412.29231,W,000835.00,A,D*77
$GPRMC,000836.00,A,4047.04918,N,07412.29233,W,0.033,,100324,,,D*64
$GPVTG,,T,,M,0.033,N,0.061,K,D*21
$GPGGA,000836.00,4047.04918,N,07412.29233,W,2,10,0.93,44.8,M,-34.4,M,,0000*57
$GPGSA,A,3,19,05,29,11,25,12,20,09,46,06,,,1.64,0.93,1.34*00
$GPGSV,3,1,12,05,41,228,41,06,40,072,20,09,25,056,37,11,69,024,37*74
$GPGSV,3,2,12,12,36,244,29,13,03,172,17,19,21,135,15,20,80,252,37*74
$GPGSV,3,3,12,25,29,281,33,29,14,314,34,46,17,245,35,48,20,242,*79
$GPGLL,4047.04918,N,07412.29233,W,000836.00,A,D*79
$GPRMC,000837.00,A,4047.04918,N,07412.29235,W,0.041,,100324,,,D*66
$GPVTG,,T,,M,0.041,N,0.076,K,D*22
$GPGGA,000837.00,4047.04918,N,07412.29235,W,2,10,0.93,44.7,M,-34.4,M,,0000*5F
$GPGSA,A,3,19,05,29,11,25,12,20,09,46,06,,,1.64,0.93,1.34*00
$GPGSV,3,1,12,05,41,228,41,06,40,072,21,09,25,056,38,11,69,024,37*7A
$GPGSV,3,2,12,12,36,244,29,13,03,172,17,19,21,135,15,20,80,252,37*74
$GPGSV,3,3,12,25,29,281,33,29,15,314,34,46,17,245,35,48,20,242,*78
$GPGLL,4047.04918,N,07412.29235,W,000837.00,A,D*7E
$GPRMC,000838.00,A,4047.04921,N,07412.29237,W,0.058,,100324,,,D*69
$GPVTG,,T,,M,0.058,N,0.107,K,D*2D
$GPGGA,000838.00,4047.04921,N,07412.29237,W,2,10,0.93,44.7,M,-34.4,M,,0000*58
$GPGSA,A,3,19,05,29,11,25,12,20,09,46,06,,,1.64,0.93,1.34*00
$GPGSV,3,1,12,05,41,228,41,06,40,072,20,09,25,056,37,11,69,024,37*74
$GPGSV,3,2,12,12,36,244,28,13,03,172,,19,21,135,15,20,80,252,37*73
$GPGSV,3,3,12,25,29,281,33,29,15,314,34,46,17,245,35,48,20,242,*78
$GPGLL,4047.04921,N,07412.29237,W,000838.00,A,D*79
$GPRMC,000839.00,A,4047.04926,N,07412.29239,W,0.027,,100324,,,D*69
$GPVTG,,T,,M,0.027,N,0.051,K,D*27
$GPGGA,000839.00,4047.04926,N,07412.29239,W,2,10,1.37,44.7,M,-34.4,M,,0000*5F
$GPGSA,A,3,19,05,29,11,25,12,20,09,46,06,,,2.12,1.37,1.62*0E
$GPGSV,3,1,12,05,41,228,41,06,40,072,18,09,25,056,37,11,69,024,37*7F
$GPGSV,3,2,12,12,36,244,28,13,03,172,19,19,21,135,13,20,80,252,37*7D
$GPGSV,3,3,12,25,29,281,34,29,15,314,33,46,17,245,35,48,20,242,*78
$GPGLL,4047.04926,N,07412.29239,W,000839.00,A,D*71
$GPRMC,000840.00,A,4047.04931,N,07412.29241,W,0.044,,100324,,,D*6B
$GPVTG,,T,,M,0.044,N,0.081,K,D*2F
$GPGGA,000840.00,4047.04931,N,07412.29241,W,2,10,0.93,44.7,M,-34.4,M,,0000*57
$GPGSA,A,3,19,05,29,11,25,12,20,09,46,06,,,1.64,0.93,1.34*00
$GPGSV,3,1,12,05,41,228,41,06,40,072,20,09,25,056,37,11,69,024,37*74
$GPGSV,3,2,12,12,36,244,30,13,03,172,17,19,21,135,13,20,80,252,37*7A
$GPGSV,3,3,12,25,29,281,34,29,15,314,34,46,17,245,35,48,20,242,*7F
$GPGLL,4047.04931,N,07412.29241,W,000840.00,A,D*76
$GPRMC,000841.00,A,4047.04940,N,07412.29245,W,0.037,,100324,,,D*6C
$GPVTG,,T,,M,0.037,N,0.069,K,D*2D
$GPGGA,000841.00,4047.04940,N,07412.29245,W,2,10,0.93,44.7,M,-34.4,M,,0000*54
$GPGSA,A,3,19,05,29,11,25,12,20,09,46,06,,,1.64,0.93,1.34*00
$GPGSV,3,1,12,05,41,228,41,06,40,072,21,09,25,056,37,11,69,024,37*75
$GPGSV,3,2,12,12,36,244,31,13,03,172,17,19,21,135,12,20,80,252,37*7A
$GPGSV,3,3,12,25,29,281,34,29,15,314,34,46,17,245,34,48,20,242,*7E
$GPGLL,4047.04940,N,07412.29245,W,000841.00,A,D*75
$GPRMC,000842.00,A,4047.04948,N,07412.29248,W,0.042,,100324,,,D*68
$GPVTG,,T,,M,0.042,N,0.078,K,D*2F
$GPGGA,000842.00,4047.04948,N,07412.29248,W,2,10,0.93,44.8,M,-34.4,M,,0000*5D
$GPGSA,A,3,19,05,29,11,25,12,20,09,46,06,,,1.64,0.93,1.34*00
$GPGSV,3,1,12,05,41,228,41,06,40,072,20,09,25,056,37,11,69,024,37*74
$GPGSV,3,2,12,12,36,244,30,13,03,172,17,19,21,135,15,20,80,252,37*7C
$GPGSV,3,3,12,25,29,281,34,29,15,314,34,46,17,245,35,48,20,242,*7F
$GPGLL,4047.04948,N,07412.29248,W,000842.00,A,D*73
$GPRMC,000843.00,A,4047.04957,N,07412.29252,W,0.039,,100324,,,D*60
$GPVTG,,T,,M,0.039,N,0.072,K,D*29
$GPGGA,000843.00,4047.04957,N,07412.29252,W,2,10,0.93,44.9,M,-34.4,M,,0000*58
$GPGSA,A,3,19,05,29,11,25,12,20,09,46,06,,,1.64,0.93,1.34*00
$GPGSV,3,1,12,05,41,228,42,06,40,072,18,09,25,056,38,11,69,024,37*73
$GPGSV,3,2,12,12,36,244,30,13,03,172,16,19,21,135,18,20,80,252,38*7F
$GPGSV,3,3,12,25,29,281,35,29,15,314,34,46,17,245,36,48,20,242,*7D
$GPGLL,4047.04957,N,07412.29252,W,000843.00,A,D*77
$GPRMC,000844.00,A,4047.04957,N,07412.29253,W,0.010,,100324,,,D*6D
$GPVTG,,T,,M,0.010,N,0.019,K,D*2F
$GPGGA,000844.00,4047.04957,N,07412.29253,W,2,10,0.93,44.9,M,-34.4,M,,0000*5E
$GPGSA,A,3,19,05,29,11,25,12,20,09,46,06,,,1.64,0.93,1.34*00
$GPGSV,3,1,12,05,41,228,42,06,40,072,17,09,25,056,38,11,69,024,38*73
$GPGSV,3,2,12,12,36,244,30,13,03,172,17,19,21,135,19,20,80,252,38*7F
$GPGSV,3,3,12,25,29,281,34,29,15,314,33,46,17,245,35,48,20,242,*78
$GPGLL,4047.04957,N,07412.29253,W,000844.00,A,D*71
$GPRMC,000845.00,A,4047.04963,N,07412.29252,W,0.045,,100324,,,D*6A
$GPVTG,,T,,M,0.045,N,0.082,K,D*2D
$GPGGA,000845.00,4047.04963,N,07412.29252,W,2,10,0.93,44.8,M,-34.4,M,,0000*58
$GPGSA,A,3,19,05,29,11,25,12,20,09,46,06,,,1.64,0.93,1.34*00
$GPGSV,3,1,12,05,41,228,42,06,40,072,15,09,25,056,38,11,69,024,37*7E
$GPGSV,3,2,12,12,36,244,30,13,03,172,16,19,21,135,19,20,80,252,37*71
$GPGSV,3,3,12,25,29,281,34,29,15,314,33,46,17,245,35,48,20,242,*78
$GPGLL,4047.04963,N,07412.29252,W,000845.00,A,D*76
$GPRMC,000846.00,A,4047.04970,N,07412.29249,W,0.068,,100324,,,D*6E
$GPVTG,,T,,M,0.068,N,0.127,K,D*2C
$GPGGA,000846.00,4047.04970,N,07412.29249,W,2,10,0.93,44.7,M,-34.4,M,,0000*5C
$GPGSA,A,3,19,05,29,11,25,12,20,09,46,06,,,1.64,0.93,1.34*00
$GPGSV,3,1,12,05,41,228,42,06,40,072,15,09,25,056,38,11,69,024,37*7E
$GPGSV,3,2,12,12,36,244,31,13,03,172,17,19,21,135,18,20,80,252,37*70
$GPGSV,3,3,12,25,29,281,35,29,15,314,33,46,17,245,35,48,20,242,*79
$GPGLL,4047.04970,N,07412.29249,W,000846.00,A,D*7D
$GPRMC,000847.00,A,4047.04948,N,07412.29241,W,0.051,,100324,,,D*66
$GPVTG,,T,,M,0.051,N,0.094,K,D*2F
$GPGGA,000847.00,4047.04948,N,07412.29241,W,2,10,0.93,43.6,M,-34.4,M,,0000*58
$GPGSA,A,3,19,05,29,11,25,12,20,09,46,06,,,1.64,0.93,1.34*00
$GPGSV,3,1,12,05,41,228,42,06,40,072,16,09,25,056,37,11,69,024,39*7C
$GPGSV,3,2,12,12,36,244,30,13,03,172,18,19,21,135,20,20,80,252,37*75
$GPGSV,3,3,12,25,29,281,36,29,15,314,33,46,17,245,38,48,20,242,*77
$GPGLL,4047.04948,N,07412.29241,W,000847.00,A,D*7F
$GPRMC,000848.00,A,4047.04934,N,07412.29239,W,0.036,,100324,,,D*6C
$GPVTG,,T,,M,0.036,N,0.066,K,D*23
$GPGGA,000848.00,4047.04934,N,07412.29239,W,2,10,0.93,42.8,M,-34.4,M,,0000*5C
$GPGSA,A,3,19,05,29,11,25,12,20,09,46,06,,,1.64,0.93,1.34*00
$GPGSV,3,1,12,05,41,228,42,06,40,072,19,09,25,056,37,11,69,024,39*73
$GPGSV,3,2,12,12,36,244,29,13,03,172,17,19,21,135,21,20,80,252,37*73
$GPGSV,3,3,12,25,29,281,36,29,15,314,34,46,17,245,37,48,20,242,*7F
$GPGLL,4047.04934,N,07412.29239,W,000848.00,A,D*74
$GPRMC,000849.00,A,4047.04950,N,07412.29246,W,0.031,,100324,,,D*60
$GPVTG,,T,,M,0.031,N,0.058,K,D*29
$GPGGA,000849.00,4047.04950,N,07412.29246,W,2,10,0.93,43.1,M,-34.4,M,,0000*5F
$GPGSA,A,3,19,05,29,11,25,12,20,09,46,06,,,1.64,0.93,1.34*00
$GPGSV,3,1,12,05,41,228,43,06,40,072,20,09,25,056,37,11,69,024,37*76
$GPGSV,3,2,12,12,36,244,28,13,03,172,16,19,21,135,23,20,80,252,38*7E
$GPGSV,3,3,12,25,29,281,36,29,15,314,34,46,17,245,37,48,20,242,*7F
$GPGLL,4047.04950,N,07412.29246,W,000849.00,A,D*7F
$GPRMC,000850.00,A,4047.04960,N,07412.29249,W,0.066,,100324,,,D*66
$GPVTG,,T,,M,0.066,N,0.122,K,D*27
$GPGGA,000850.00,4047.04960,N,07412.29249,W,2,10,1.37,43.3,M,-34.4,M,,0000*56
$GPGSA,A,3,19,05,29,11,25,12,20,09,46,06,,,2.12,1.37,1.62*0E
$GPGSV,3,1,12,05,41,228,43,06,40,072,18,09,25,056,37,11,69,024,38*72
$GPGSV,3,2,12,12,36,244,27,13,03,172,15,19,21,135,25,20,80,252,38*74
$GPGSV,3,3,12,25,29,281,35,29,15,314,34,46,17,245,36,48,20,242,*7D
$GPGLL,4047.04960,N,07412.29249,W,000850.00,A,D*7B
$GPRMC,000851.00,A,4047.04962,N,07412.29246,W,0.028,,100324,,,D*60
$GPVTG,,T,,M,0.028,N,0.053,K,D*2A
$GPGGA,000851.00,4047.04962,N,07412.29246,W,2,10,1.37,43.1,M,-34.4,M,,0000*58
$GPGSA,A,3,19,05,29,11,25,12,20,09,46,06,,,2.12,1.37,1.62*0E
$GPGSV,3,1,12,05,41,228,43,06,40,072,18,09,25,056,37,11,69,024,38*72
$GPGSV,3,2,12,12,36,244,25,13,03,172,,19,21,135,25,20,80,252,37*7D
$GPGSV,3,3,12,25,29,281,36,29,15,314,33,46,17,245,36,48,20,242,*79
$GPGLL,4047.04962,N,07412.29246,W,000851.00,A,D*77
$GPRMC,000852.00,A,4047.04964,N,07412.29246,W,0.012,,100324,,,D*6C
$GPVTG,,T,,M,0.012,N,0.022,K,D*25
$GPGGA,000852.00,4047.04964,N,07412.29246,W,2,10,1.37,43.1,M,-34.4,M,,0000*5D
$GPGSA,A,3,19,05,29,11,25,12,20,09,46,06,,,2.12,1.37,1.62*0E
$GPGSV,3,1,12,05,41,228,43,06,40,072,17,09,25,056,36,11,69,024,37*73
$GPGSV,3,2,12,12,36,244,25,13,03,172,,19,21,135,26,20,80,252,37*7E
$GPGSV,3,3,12,25,29,281,35,29,15,314,33,46,17,245,35,48,20,242,*79
$GPGLL,4047.04964,N,07412.29246,W,000852.00,A,D*72
$GPRMC,000853.00,A,4047.04968,N,07412.29247,W,0.022,,100324,,,D*63
$GPVTG,,T,,M,0.022,N,0.041,K,D*23
$GPGGA,000853.00,4047.04968,N,07412.29247,W,2,10,1.37,43.1,M,-34.4,M,,0000*51
$GPGSA,A,3,19,05,29,11,25,12,20,09,46,06,,,2.12,1.37,1.62*0E
$GPGSV,3,1,12,05,41,228,43,06,40,072,16,09,25,056,36,11,69,024,37*72
$GPGSV,3,2,12,12,36,244,24,13,03,172,,19,21,135,26,20,80,252,37*7F
$GPGSV,3,3,12,25,29,281,35,29,15,314,34,46,17,245,34,48,20,242,*7F
$GPGLL,4047.04968,N,07412.29247,W,000853.00,A,D*7E
$GPRMC,000854.00,A,4047.04972,N,07412.29247,W,0.082,,100324,,,D*65
$GPVTG,,T,,M,0.082,N,0.152,K,D*2A
$GPGGA,000854.00,4047.04972,N,07412.29247,W,2,10,1.37,43.1,M,-34.4,M,,0000*5D
$GPGSA,A,3,19,05,29,11,25,12,20,09,46,06,,,2.12,1.37,1.62*0E
$GPGSV,3,1,12,05,41,228,43,06,40,072,17,09,25,056,37,11,69,024,37*72
$GPGSV,3,2,12,12,36,244,21,13,03,172,,19,21,135,27,20,80,252,36*7A
$GPGSV,3,3,12,25,29,281,35,29,15,314,34,46,17,245,37,48,20,242,*7C
$GPGLL,4047.04972,N,07412.29247,W,000854.00,A,D*72
$GPRMC,000855.00,A,4047.04969,N,07412.29243,W,0.023,,100324,,,D*61
$GPVTG,,T,,M,0.023,N,0.043,K,D*20
$GPGGA,000855.00,4047.04969,N,07412.29243,W,2,10,1.25,42.9,M,-34.4,M,,0000*58
$GPGSA,A,3,19,05,29,11,25,12,20,09,46,06,,,2.02,1.25,1.58*05
$GPGSV,3,1,12,05,41,228,43,06,40,072,19,09,25,056,38,11,69,024,38*7C
$GPGSV,3,2,12,12,36,244,21,13,03,172,,19,21,135,27,20,80,252,37*7B
$GPGSV,3,3,12,25,29,281,36,29,15,314,32,46,17,245,36,48,20,242,*78
$GPGLL,4047.04969,N,07412.29243,W,000855.00,A,D*7D
$GPRMC,000856.00,A,4047.04965,N,07412.29239,W,0.028,,100324,,,D*68
$GPVTG,,T,,M,0.028,N,0.052,K,D*2B
$GPGGA,000856.00,4047.04965,N,07412.29239,W,2,10,1.25,42.8,M,-34.4,M,,0000*5B
$GPGSA,A,3,19,05,29,11,25,12,20,09,46,06,,,2.02,1.25,1.58*05
$GPGSV,3,1,12,05,41,228,43,06,40,072,21,09,25,056,38,11,69,024,38*77
$GPGSV,3,2,12,12,36,244,22,13,03,172,,19,21,135,27,20,80,252,37*78
$GPGSV,3,3,12,25,29,281,36,29,15,314,31,46,17,245,36,48,20,242,*7B
$GPGLL,4047.04965,N,07412.29239,W,000856.00,A,D*7F
$GPRMC,000857.00,A,4047.04945,N,07412.29228,W,0.101,,100324,,,D*61
$GPVTG,,T,,M,0.101,N,0.186,K,D*29
$GPGGA,000857.00,4047.04945,N,07412.29228,W,2,10,1.25,42.0,M,-34.4,M,,0000*50
$GPGSA,A,3,19,05,29,11,25,12,20,09,46,06,,,2.02,1.25,1.58*05
$GPGSV,3,1,12,05,42,228,43,06,40,072,23,09,25,056,38,11,69,024,39*77
$GPGSV,3,2,12,12,36,244,23,13,03,172,,19,21,135,28,20,80,252,37*76
$GPGSV,3,3,12,25,29,281,36,29,15,314,31,46,17,245,36,48,20,242,*7B
$GPGLL,4047.04945,N,07412.29228,W,000857.00,A,D*7C
$GPRMC,000858.00,A,4047.04928,N,07412.29220,W,0.055,,100324,,,D*6D
$GPVTG,,T,,M,0.055,N,0.101,K,D*26
$GPGGA,000858.00,4047.04928,N,07412.29220,W,2,10,1.25,41.4,M,-34.4,M,,0000*5B
$GPGSA,A,3,19,05,29,11,25,12,20,09,46,06,,,2.02,1.25,1.58*05
$GPGSV,3,1,12,05,42,228,43,06,39,072,26,09,25,056,36,11,69,024,39*72
$GPGSV,3,2,12,12,36,244,21,13,03,172,,19,21,135,27,20,80,252,37*7B
$GPGSV,3,3,12,25,29,281,36,29,15,314,32,46,17,245,36,48,20,242,*78
$GPGLL,4047.04928,N,07412.29220,W,000858.00,A,D*70
$GPRMC,000859.00,A,4047.04921,N,07412.29208,W,0.027,,100324,,,D*6A
$GPVTG,,T,,M,0.027,N,0.051,K,D*27
$GPGGA,000859.00,4047.04921,N,07412.29208,W,2,10,1.25,41.1,M,-34.4,M,,0000*5C
$GPGSA,A,3,19,05,29,11,25,12,20,09,46,06,,,2.02,1.25,1.58*05
$GPGSV,3,1,12,05,42,228,43,06,39,072,27,09,25,056,38,11,69,024,38*7C
$GPGSV,3,2,12,12,36,244,22,13,03,172,20,19,21,135,26,20,80,252,36*7A
$GPGSV,3,3,12,25,29,281,35,29,15,314,30,46,17,245,35,48,20,242,*7A
$GPGLL,4047.04921,N,07412.29208,W,000859.00,A,D*72
$GPRMC,000900.00,A,4047.04917,N,07412.29199,W,0.028,,100324,,,D*66
$GPVTG,,T,,M,0.028,N,0.052,K,D*2B
$GPGGA,000900.00,4047.04917,N,07412.29199,W,2,10,1.25,40.8,M,-34.4,M,,0000*57
$GPGSA,A,3,19,05,29,11,25,12,20,09,46,06,,,2.02,1.25,1.58*05
$GPGSV,3,1,12,05,42,228,42,06,39,072,28,09,25,056,38,11,69,024,38*72
$GPGSV,3,2,12,12,36,244,22,13,03,172,18,19,21,135,26,20,80,252,36*71
$GPGSV,3,3,12,25,29,281,35,29,15,314,30,46,17,245,35,48,20,242,*7A
$GPGLL,4047.04917,N,07412.29199,W,000900.00,A,D*71
$GPRMC,000901.00,A,4047.04912,N,07412.29194,W,0.037,,100324,,,D*61
$GPVTG,,T,,M,0.037,N,0.068,K,D*2C
$GPGGA,000901.00,4047.04912,N,07412.29194,W,2,10,1.25,40.5,M,-34.4,M,,0000*53
$GPGSA,A,3,19,05,29,11,25,12,20,09,46,06,,,2.02,1.25,1.58*05
$GPGSV,3,1,12,05,42,228,44,06,39,072,29,09,25,056,38,11,69,024,39*74
$GPGSV,3,2,12,12,36,244,21,13,03,172,,19,21,135,27,20,80,252,37*7B
$GPGSV,3,3,12,25,29,281,36,29,15,314,32,46,17,245,35,48,20,242,*7B
$GPGLL,4047.04912,N,07412.29194,W,000901.00,A,D*78
$GPRMC,000902.00,A,4047.04907,N,07412.29190,W,0.013,,100324,,,D*64
$GPVTG,,T,,M,0.013,N,0.023,K,D*25
$GPGGA,000902.00,4047.04907,N,07412.29190,W,2,10,1.25,40.3,M,-34.4,M,,0000*56
$GPGSA,A,3,19,05,29,11,25,12,20,09,46,06,,,2.02,1.25,1.58*05
$GPGSV,3,1,12,05,42,228,43,06,39,072,28,09,25,056,37,11,69,024,39*7D
$GPGSV,3,2,12,12,36,244,21,13,03,172,,19,21,135,27,20,80,252,37*7B
$GPGSV,3,3,12,25,29,281,35,29,15,314,32,46,17,245,35,48,20,242,*78
$GPGLL,4047.04907,N,07412.29190,W,000902.00,A,D*7B
$GPRMC,000903.00,A,4047.04907,N,07412.29187,W,0.025,,100324,,,D*66
$GPVTG,,T,,M,0.025,N,0.045,K,D*20
$GPGGA,000903.00,4047.04907,N,07412.29187,W,2,10,1.25,40.2,M,-34.4,M,,0000*50
$GPGSA,A,3,19,05,29,11,25,12,20,09,46,06,,,2.02,1.25,1.58*05
$GPGSV,3,1,12,05,42,228,44,06,39,072,28,09,25,056,37,11,69,025,39*7B
$GPGSV,3,2,12,12,36,244,21,13,03,172,,19,21,135,26,20,80,252,37*7A
$GPGSV,3,3,12,25,29,281,35,29,15,314,33,46,17,245,35,48,20,242,*79
$GPGLL,4047.04907,N,07412.29187,W,000903.00,A,D*7C
$GPRMC,000904.00,A,4047.04905,N,07412.29182,W,0.044,,100324,,,D*61
$GPVTG,,T,,M,0.044,N,0.082,K,D*2C
$GPGGA,000904.00,4047.04905,N,07412.29182,W,2,10,1.25,40.2,M,-34.4,M,,0000*50
$GPGSA,A,3,19,05,29,11,25,12,20,09,46,06,,,2.02,1.25,1.59*04
$GPGSV,3,1,12,05,42,228,43,06,39,072,28,09,25,056,37,11,69,025,39*7C
$GPGSV,3,2,12,12,35,244,20,13,03,172,,19,21,135,26,20,80,252,37*78
$GPGSV,3,3,12,25,29,281,35,29,15,314,32,46,17,245,35,48,20,242,*78
$GPGLL,4047.04905,N,07412.29182,W,000904.00,A,D*7C
$GPRMC,000905.00,A,4047.04904,N,07412.29178,W,0.039,,100324,,,D*6E
$GPVTG,,T,,M,0.039,N,0.072,K,D*29
$GPGGA,000905.00,4047.04904,N,07412.29178,W,2,10,1.25,40.2,M,-34.4,M,,0000*55
$GPGSA,A,3,19,05,29,11,25,12,20,09,46,06,,,2.02,1.25,1.59*04
$GPGSV,3,1,12,05,42,228,43,06,39,072,28,09,25,056,37,11,69,025,39*7C
$GPGSV,3,2,12,12,35,244,20,13,03,172,,19,21,135,26,20,80,252,37*78
$GPGSV,3,3,12,25,29,281,35,29,15,314,32,46,17,245,35,48,20,242,*78
$GPGLL,4047.04904,N,07412.29178,W,000905.00,A,D*79
$GPRMC,000906.00,A,4047.04903,N,07412.29175,W,0.018,,100324,,,D*64
$GPVTG,,T,,M,0.018,N,0.033,K,D*2F
$GPGGA,000906.00,4047.04903,N,07412.29175,W,2,10,1.25,40.2,M,-34.4,M,,0000*5C
$GPGSA,A,3,19,05,29,11,25,12,20,09,46,06,,,2.02,1.25,1.59*04
$GPGSV,3,1,12,05,42,228,44,06,39,072,29,09,25,056,37,11,69,025,39*7A
$GPGSV,3,2,12,12,35,244,20,13,03,172,,19,21,135,26,20,80,252,38*77
$GPGSV,3,3,12,25,29,281,35,29,15,314,33,46,17,245,36,48,20,242,*7A
$GPGLL,4047.04903,N,07412.29175,W,000906.00,A,D*70
$GPRMC,000907.00,A,4047.04902,N,07412.29172,W,0.071,,100324,,,D*6C
$GPVTG,,T,,M,0.071,N,0.131,K,D*23
$GPGGA,000907.00,4047.04902,N,07412.29172,W,2,10,1.25,40.2,M,-34.4,M,,0000*5B
$GPGSA,A,3,19,05,29,11,25,12,20,09,46,06,,,2.02,1.25,1.59*04
$GPGSV,3,1,12,05,42,228,43,06,39,072,28,09,25,056,36,11,69,025,38*7C
$GPGSV,3,2,12,12,35,244,20,13,03,172,,19,21,135,25,20,80,252,37*7B
$GPGSV,3,3,12,25,29,281,35,29,15,314,31,46,17,245,35,48,20,242,*7B
$GPGLL,4047.04902,N,07412.29172,W,000907.00,A,D*77
$GPRMC,000908.00,A,4047.04904,N,07412.29171,W,0.036,,100324,,,D*65
$GPVTG,,T,,M,0.036,N,0.067,K,D*22
$GPGGA,000908.00,4047.04904,N,07412.29171,W,2,10,1.25,40.2,M,-34.4,M,,0000*51
$GPGSA,A,3,19,05,29,11,25,12,20,09,46,06,,,2.02,1.25,1.59*04
$GPGSV,3,1,12,05,42,228,43,06,39,072,28,09,25,056,36,11,69,025,38*7C
$GPGSV,3,2,12,12,35,244,20,13,03,172,,19,21,135,25,20,80,252,37*7B
$GPGSV,3,3,12,25,29,281,34,29,15,314,31,46,17,245,35,48,20,242,*7A
$GPGLL,4047.04904,N,07412.29171,W,000908.00,A,D*7D
$GPRMC,000909.00,A,4047.04904,N,07412.29170,W,0.044,,100324,,,D*60
$GPVTG,,T,,M,0.044,N,0.081,K,D*2F
$GPGGA,000909.00,4047.04904,N,07412.29170,W,2,10,1.25,40.2,M,-34.4,M,,0000*51
$GPGSA,A,3,19,05,29,11,25,12,20,09,46,06,,,2.02,1.25,1.59*04
$GPGSV,3,1,12,05,42,228,44,06,39,072,29,09,25,056,36,11,69,025,38*7A
$GPGSV,3,2,12,12,35,244,20,13,03,172,,19,21,135,25,20,80,252,38*74
$GPGSV,3,3,12,25,29,281,35,29,15,314,34,46,17,245,36,48,20,242,*7D
$GPGLL,4047.04904,N,07412.29170,W,000909.00,A,D*7D
$GPRMC,000910.00,A,4047.04907,N,07412.29167,W,0.024,,100324,,,D*6B
$GPVTG,,T,,M,0.024,N,0.045,K,D*21
$GPGGA,000910.00,4047.04907,N,07412.29167,W,2,10,1.25,40.2,M,-34.4,M,,0000*5C
$GPGSA,A,3,19,05,29,11,25,12,20,09,46,06,,,2.02,1.25,1.59*04
$GPGSV,3,1,12,05,42,228,42,06,39,072,30,09,25,056,36,11,69,025,37*7B
$GPGSV,3,2,12,12,35,244,21,13,03,172,,19,21,135,25,20,80,252,37*7A
$GPGSV,3,3,12,25,29,281,34,29,15,314,30,46,17,245,36,48,20,242,*78
$GPGLL,4047.04907,N,07412.29167,W,000910.00,A,D*70
$GPRMC,000911.00,A,4047.04907,N,07412.29163,W,0.016,,100324,,,D*6F
$GPVTG,,T,,M,0.016,N,0.031,K,D*23
$GPGGA,000911.00,4047.04907,N,07412.29163,W,2,10,1.25,40.1,M,-34.4,M,,0000*5A
$GPGSA,A,3,19,05,29,11,25,12,20,09,46,06,,,2.02,1.25,1.59*04
$GPGSV,3,1,12,05,42,228,42,06,39,072,30,09,25,056,36,11,69,025,37*7B
$GPGSV,3,2,12,12,35,244,22,13,03,172,,19,20,135,24,20,80,252,37*79
$GPGSV,3,3,12,25,29,281,34,29,15,314,30,46,17,245,36,48,20,242,*78
$GPGLL,4047.04907,N,07412.29163,W,000911.00,A,D*75
$GPRMC,000912.00,A,4047.04910,N,07412.29164,W,0.015,,100324,,,D*6E
$GPVTG,,T,,M,0.015,N,0.028,K,D*28
$GPGGA,000912.00,4047.04910,N,07412.29164,W,2,10,1.25,40.2,M,-34.4,M,,0000*5B
$GPGSA,A,3,19,05,29,11,25,12,20,09,46,06,,,2.02,1.25,1.59*04
$GPGSV,3,1,12,05,42,228,42,06,39,072,31,09,25,056,35,11,69,025,38*76
$GPGSV,3,2,12,12,35,244,24,13,03,172,,19,20,135,25,20,80,254,38*77
$GPGSV,3,3,12,25,29,281,34,29,15,314,32,46,17,245,36,48,20,242,*7A
$GPGLL,4047.04910,N,07412.29164,W,000912.00,A,D*77
$GPRMC,000913.00,A,4047.04910,N,07412.29162,W,0.052,,100324,,,D*6A
$GPVTG,,T,,M,0.052,N,0.097,K,D*2F
$GPGGA,000913.00,4047.04910,N,07412.29162,W,2,10,1.25,40.2,M,-34.4,M,,0000*5C
$GPGSA,A,3,19,05,29,11,25,12,20,09,46,06,,,2.02,1.25,1.59*04
$GPGSV,3,1,12,05,42,228,42,06,39,072,31,09,25,056,35,11,69,025,37*79
$GPGSV,3,2,12,12,35,244,25,13,03,172,,19,20,135,23,20,80,254,37*7F
$GPGSV,3,3,12,25,29,281,34,29,15,314,33,46,17,245,36,48,20,242,*7B
$GPGLL,4047.04910,N,07412.29162,W,000913.00,A,D*70
$GPRMC,000914.00,A,4047.04915,N,07412.29163,W,0.019,,100324,,,D*66
$GPVTG,,T,,M,0.019,N,0.036,K,D*2B
$GPGGA,000914.00,4047.04915,N,07412.29163,W,2,10,1.25,40.2,M,-34.4,M,,0000*5F
$GPGSA,A,3,19,05,29,11,25,12,20,09,46,06,,,2.02,1.25,1.59*04
$GPGSV,3,1,12,05,42,228,42,06,39,072,31,09,25,056,35,11,69,025,37*79
$GPGSV,3,2,12,12,35,244,25,13,03,172,,19,20,135,22,20,80,254,37*7E
$GPGSV,3,3,12,25,29,281,34,29,15,314,32,46,17,245,36,48,20,242,*7A
$GPGLL,4047.04915,N,07412.29163,W,000914.00,A,D*73
$GPRMC,000915.00,A,4047.04913,N,07412.29160,W,0.018,,100324,,,D*63
$GPVTG,,T,,M,0.018,N,0.034,K,D*28
$GPGGA,000915.00,4047.04913,N,07412.29160,W,2,10,1.25,40.2,M,-34.4,M,,0000*5B
$GPGSA,A,3,19,05,29,11,25,12,20,09,46,06,,,2.02,1.25,1.59*04
$GPGSV,3,1,12,05,42,228,42,06,39,072,30,09,25,056,35,11,69,025,37*78
$GPGSV,3,2,12,12,35,244,24,13,03,172,,19,20,135,21,20,80,254,37*7C
$GPGSV,3,3,12,25,29,281,35,29,15,314,32,46,17,245,36,48,20,242,*7B
$GPGLL,4047.04913,N,07412.29160,W,000915.00,A,D*77
$GPRMC,000916.00,A,4047.04917,N,07412.29162,W,0.124,,100324,,,D*68
$GPVTG,,T,,M,0.124,N,0.230,K,D*20
$GPGGA,000916.00,4047.04917,N,07412.29162,W,2,10,0.89,40.3,M,-34.4,M,,0000*58
$GPGSA,A,3,19,05,29,11,25,12,20,09,46,06,,,1.61,0.89,1.34*0E
$GPGSV,3,1,12,05,42,228,42,06,39,072,30,09,25,056,35,11,69,025,37*78
$GPGSV,3,2,12,12,35,244,24,13,03,172,,19,20,135,21,20,80,254,37*7C
$GPGSV,3,3,12,25,29,281,34,29,15,314,31,46,17,245,36,48,20,242,*79
$GPGLL,4047.04917,N,07412.29162,W,000916.00,A,D*72
$GPRMC,000917.00,A,4047.04917,N,07412.29157,W,0.018,,100324,,,D*61
$GPVTG,,T,,M,0.018,N,0.033,K,D*2F
$GPGGA,000917.00,4047.04917,N,07412.29157,W,2,10,1.25,40.3,M,-34.4,M,,0000*58
$GPGSA,A,3,19,05,29,11,25,12,20,09,46,06,,,2.02,1.25,1.59*04
$GPGSV,3,1,12,05,42,228,42,06,39,072,30,09,25,056,35,11,69,025,37*78
$GPGSV,3,2,12,12,35,244,24,13,03,172,,19,20,135,21,20,80,254,36*7D
$GPGSV,3,3,12,25,29,281,34,29,15,314,30,46,17,245,36,48,20,242,*78
$GPGLL,4047.04917,N,07412.29157,W,000917.00,A,D*75
$GPRMC,000918.00,A,4047.04919,N,07412.29158,W,0.038,,100324,,,D*6D
$GPVTG,,T,,M,0.038,N,0.070,K,D*2A
$GPGGA,000918.00,4047.04919,N,07412.29158,W,2,10,1.25,40.4,M,-34.4,M,,0000*51
$GPGSA,A,3,19,05,29,11,25,12,20,09,46,06,,,2.02,1.25,1.59*04
$GPGSV,3,1,12,05,42,228,42,06,39,072,30,09,25,056,34,11,69,025,37*79
$GPGSV,3,2,12,12,35,244,25,13,03,172,17,19,20,135,19,20,80,254,36*71
$GPGSV,3,3,12,25,29,281,34,29,15,314,31,46,17,245,36,48,20,242,*79
$GPGLL,4047.04919,N,07412.29158,W,000918.00,A,D*7B
$GPRMC,000919.00,A,4047.04921,N,07412.29157,W,0.033,,100324,,,D*63
$GPVTG,,T,,M,0.033,N,0.061,K,D*21
$GPGGA,000919.00,4047.04921,N,07412.29157,W,2,10,1.25,40.4,M,-34.4,M,,0000*54
$GPGSA,A,3,19,05,29,11,25,12,20,09,46,06,,,2.02,1.25,1.58*05
$GPGSV,3,1,12,05,42,228,43,06,39,072,30,09,25,056,35,11,69,025,37*79
$GPGSV,3,2,12,12,35,244,24,13,03,172,15,19,20,135,16,20,80,254,36*7D
$GPGSV,3,3,12,25,29,281,34,29,15,314,31,46,17,245,36,48,20,242,*79
$GPGLL,4047.04921,N,07412.29157,W,000919.00,A,D*7E
$GPRMC,000920.00,A,4047.04921,N,07412.29157,W,0.028,,100324,,,D*63
$GPVTG,,T,,M,0.028,N,0.052,K,D*2B
$GPGGA,000920.00,4047.04921,N,07412.29157,W,2,10,1.25,40.5,M,-34.4,M,,0000*5F
$GPGSA,A,3,19,05,29,11,25,12,20,09,46,06,,,2.02,1.25,1.58*05
$GPGSV,3,1,12,05,42,228,42,06,39,072,30,09,25,056,34,11,69,025,37*79
$GPGSV,3,2,12,12,35,244,24,13,03,172,13,19,20,135,15,20,80,254,36*78
$GPGSV,3,3,12,25,29,281,34,29,15,314,32,46,17,245,36,48,20,242,*7A
$GPGLL,4047.04921,N,07412.29157,W,000920.00,A,D*74
$GPRMC,000921.00,A,4047.04920,N,07412.29156,W,0.064,,100324,,,D*6A
$GPVTG,,T,,M,0.064,N,0.118,K,D*2C
$GPGGA,000921.00,4047.04920,N,07412.29156,W,2,10,1.25,40.6,M,-34.4,M,,0000*5D
$GPGSA,A,3,19,05,29,11,25,12,20,09,46,06,,,2.02,1.25,1.58*05
$GPGSV,3,1,12,05,42,228,42,06,39,072,30,09,25,056,34,11,69,025,37*79
$GPGSV,3,2,12,12,35,244,25,13,03,172,15,19,20,135,13,20,80,254,36*79
$GPGSV,3,3,12,25,29,281,34,29,15,314,31,46,17,245,36,48,20,242,*79
$GPGLL,4047.04920,N,07412.29156,W,000921.00,A,D*75
$GPRMC,000922.00,A,4047.04927,N,07412.29157,W,0.026,,100324,,,D*69
$GPVTG,,T,,M,0.026,N,0.047,K,D*21
$GPGGA,000922.00,4047.04927,N,07412.29157,W,2,10,1.25,40.6,M,-34.4,M,,0000*58
$GPGSA,A,3,19,05,29,11,25,12,20,09,46,06,,,2.02,1.25,1.58*05
$GPGSV,3,1,12,05,42,228,42,06,39,072,31,09,25,056,35,11,69,025,37*79
$GPGSV,3,2,12,12,35,244,26,13,03,172,16,19,20,135,13,20,80,254,36*79
$GPGSV,3,3,12,25,29,281,35,29,15,314,31,46,17,245,36,48,20,242,*78
$GPGLL,4047.04927,N,07412.29157,W,000922.00,A,D*70
$GPRMC,000923.00,A,4047.04933,N,07412.29156,W,0.007,,100324,,,D*6F
$GPVTG,,T,,M,0.007,N,0.013,K,D*23
$GPGGA,000923.00,4047.04933,N,07412.29156,W,2,10,1.25,40.8,M,-34.4,M,,0000*53
$GPGSA,A,3,19,05,29,11,25,12,20,09,46,06,,,2.02,1.25,1.58*05
$GPGSV,3,1,12,05,42,228,43,06,39,072,31,09,25,056,35,11,69,025,37*78
$GPGSV,3,2,12,12,35,244,26,13,03,172,15,19,20,135,13,20,80,254,37*7B
$GPGSV,3,3,12,25,29,281,35,29,15,314,30,46,17,245,37,48,20,242,*78
$GPGLL,4047.04933,N,07412.29156,W,000923.00,A,D*75
$GPRMC,000924.00,A,4047.04935,N,07412.29154,W,0.015,,100324,,,D*6F
$GPVTG,,T,,M,0.015,N,0.027,K,D*27
$GPGGA,000924.00,4047.04935,N,07412.29154,W,2,10,1.25,40.9,M,-34.4,M,,0000*51
$GPGSA,A,3,19,05,29,11,25,12,20,09,46,06,,,2.02,1.25,1.58*05
$GPGSV,3,1,12,05,42,228,43,06,39,072,31,09,25,056,35,11,69,025,37*78
$GPGSV,3,2,12,12,35,244,27,13,03,172,14,19,20,135,12,20,80,254,37*7A
$GPGSV,3,3,12,25,29,281,36,29,15,314,31,46,17,245,37,48,20,242,*7A
$GPGLL,4047.04935,N,07412.29154,W,000924.00,A,D*76
$GPRMC,000925.00,A,4047.04937,N,07412.29154,W,0.059,,100324,,,D*64
$GPVTG,,T,,M,0.059,N,0.109,K,D*22
$GPGGA,000925.00,4047.04937,N,07412.29154,W,2,09,1.25,41.0,M,-34.4,M,,0000*52
$GPGSA,A,3,05,29,11,25,12,20,09,46,06,,,,2.02,1.25,1.58*0D
$GPGSV,3,1,12,05,42,228,42,06,39,072,30,09,25,056,34,11,69,025,37*79
$GPGSV,3,2,12,12,35,244,26,13,03,172,14,19,20,135,,20,80,254,36*79
$GPGSV,3,3,12,25,29,281,35,29,15,314,30,46,17,245,36,48,20,242,*79
$GPGLL,4047.04937,N,07412.29154,W,000925.00,A,D*75
$GPRMC,000926.00,A,4047.04938,N,07412.29152,W,0.039,,100324,,,D*68
$GPVTG,,T,,M,0.039,N,0.072,K,D*29
$GPGGA,000926.00,4047.04938,N,07412.29152,W,2,09,1.25,41.2,M,-34.4,M,,0000*5A
$GPGSA,A,3,05,29,11,25,12,20,09,46,06,,,,2.02,1.25,1.58*0D
$GPGSV,3,1,12,05,42,228,43,06,39,072,31,09,25,056,34,11,69,025,37*79
$GPGSV,3,2,12,12,35,244,25,13,03,172,15,19,20,135,,20,80,254,36*7B
$GPGSV,3,3,12,25,29,281,36,29,15,314,29,46,17,245,36,48,20,242,*72
$GPGLL,4047.04938,N,07412.29152,W,000926.00,A,D*7F
$GPRMC,000927.00,A,4047.04933,N,07412.29148,W,0.056,,100324,,,D*60
$GPVTG,,T,,M,0.056,N,0.103,K,D*27
$GPGGA,000927.00,4047.04933,N,07412.29148,W,2,09,1.25,41.4,M,-34.4,M,,0000*5D
$GPGSA,A,3,05,29,11,25,12,20,09,46,06,,,,2.02,1.25,1.58*0D
$GPGSV,3,1,12,05,42,228,42,06,39,072,30,09,25,056,34,11,69,025,37*79
$GPGSV,3,2,12,12,35,244,25,13,03,172,14,19,20,135,,20,80,254,36*7A
$GPGSV,3,3,12,25,29,281,36,29,15,314,29,46,17,245,36,48,20,242,*72
$GPGLL,4047.04933,N,07412.29148,W,000927.00,A,D*7E
$GPRMC,000928.00,A,4047.04931,N,07412.29144,W,0.044,,100324,,,D*62
$GPVTG,,T,,M,0.044,N,0.082,K,D*2C
$GPGGA,000928.00,4047.04931,N,07412.29144,W,2,09,1.25,41.5,M,-34.4,M,,0000*5D
$GPGSA,A,3,05,29,11,25,12,20,09,46,06,,,,2.02,1.25,1.58*0D
$GPGSV,3,1,12,05,42,228,43,06,39,072,30,09,25,056,34,11,69,025,37*78
$GPGSV,3,2,12,12,35,244,26,13,03,172,15,19,20,135,,20,80,254,36*78
$GPGSV,3,3,12,25,29,281,36,29,15,314,30,46,17,245,37,48,20,242,*7B
$GPGLL,4047.04931,N,07412.29144,W,000928.00,A,D*7F
$GPRMC,000929.00,A,4047.04929,N,07412.29141,W,0.029,,100324,,,D*64
$GPVTG,,T,,M,0.029,N,0.054,K,D*2C
$GPGGA,000929.00,4047.04929,N,07412.29141,W,2,09,1.25,41.6,M,-34.4,M,,0000*53
$GPGSA,A,3,05,29,11,25,12,20,09,46,06,,,,2.02,1.25,1.58*0D
$GPGSV,3,1,12,05,42,228,42,06,39,072,30,09,25,056,33,11,69,025,36*7F
$GPGSV,3,2,12,12,35,244,25,13,03,172,15,19,20,135,,20,80,254,36*7B
$GPGSV,3,3,12,25,29,281,36,29,15,314,29,46,17,245,36,48,20,242,*72
$GPGLL,4047.04929,N,07412.29141,W,000929.00,A,D*72
$GPRMC,000930.00,A,4047.04922,N,07412.29137,W,0.009,,100324,,,D*64
$GPVTG,,T,,M,0.009,N,0.016,K,D*28
$GPGGA,000930.00,4047.04922,N,07412.29137,W,2,09,1.25,41.7,M,-34.4,M,,0000*50
$GPGSA,A,3,05,29,11,25,12,20,09,46,06,,,,2.02,1.25,1.58*0D
$GPGSV,3,1,12,05,42,228,42,06,39,072,31,09,25,056,33,11,69,025,36*7E
$GPGSV,3,2,12,12,35,244,26,13,03,172,15,19,20,135,,20,80,254,36*78
$GPGSV,3,3,12,25,29,281,36,29,15,314,29,46,17,245,36,48,20,242,*72
$GPGLL,4047.04922,N,07412.29137,W,000930.00,A,D*70
$GPRMC,000931.00,A,4047.04921,N,07412.29134,W,0.037,,100324,,,D*68
$GPVTG,,T,,M,0.037,N,0.068,K,D*2C
$GPGGA,000931.00,4047.04921,N,07412.29134,W,2,09,1.25,41.8,M,-34.4,M,,0000*5E
$GPGSA,A,3,05,29,11,25,12,20,09,46,06,,,,2.02,1.25,1.58*0D
$GPGSV,3,1,12,05,42,228,43,06,39,072,31,09,25,056,33,11,69,025,36*7F
$GPGSV,3,2,12,12,35,244,26,13,03,172,15,19,20,135,,20,80,254,36*78
$GPGSV,3,3,12,25,29,281,36,29,15,314,29,46,17,245,36,48,20,242,*72
$GPGLL,4047.04921,N,07412.29134,W,000931.00,A,D*71
$GPRMC,000932.00,A,4047.04920,N,07412.29131,W,0.032,,100324,,,D*6A
$GPVTG,,T,,M,0.032,N,0.059,K,D*2B
$GPGGA,000932.00,4047.04920,N,07412.29131,W,2,09,1.25,42.0,M,-34.4,M,,0000*52
$GPGSA,A,3,05,29,11,25,12,20,09,46,06,,,,2.02,1.25,1.58*0D
$GPGSV,3,1,12,05,42,228,42,06,39,072,30,09,25,056,33,11,69,025,36*7F
$GPGSV,3,2,12,12,35,244,27,13,03,172,15,19,20,135,,20,80,254,36*79
$GPGSV,3,3,12,25,29,281,36,29,15,314,31,46,17,245,36,48,20,242,*7B
$GPGLL,4047.04920,N,07412.29131,W,000932.00,A,D*76
$GPRMC,000933.00,A,4047.04913,N,07412.29125,W,0.010,,100324,,,D*6E
$GPVTG,,T,,M,0.010,N,0.019,K,D*2F
$GPGGA,000933.00,4047.04913,N,07412.29125,W,2,09,1.77,42.1,M,-34.4,M,,0000*50
$GPGSA,A,3,05,29,11,25,12,20,09,46,06,,,,2.41,1.77,1.64*02
$GPGSV,3,1,12,05,42,228,41,06,39,072,31,09,25,056,33,11,69,025,36*7D
$GPGSV,3,2,12,12,35,244,27,13,03,172,15,19,20,135,17,20,80,254,36*7F
$GPGSV,3,3,12,25,29,281,36,29,15,314,30,46,17,245,36,48,20,242,*7A
$GPGLL,4047.04913,N,07412.29125,W,000933.00,A,D*72
$GPRMC,000934.00,A,4047.04902,N,07412.29114,W,0.030,,100324,,,D*69
$GPVTG,,T,,M,0.030,N,0.055,K,D*25
$GPGGA,000934.00,4047.04902,N,07412.29114,W,2,09,1.25,42.1,M,-34.4,M,,0000*52
$GPGSA,A,3,05,29,11,25,12,20,09,46,06,,,,2.02,1.25,1.58*0D
$GPGSV,3,1,12,05,42,228,41,06,39,072,31,09,25,056,32,11,69,025,36*7C
$GPGSV,3,2,12,12,35,244,27,13,03,172,16,19,20,135,17,20,80,254,36*7C
$GPGSV,3,3,12,25,29,281,37,29,15,314,30,46,17,245,36,48,20,242,*7B
$GPGLL,4047.04902,N,07412.29114,W,000934.00,A,D*77
$GPRMC,000935.00,A,4047.04886,N,07412.29094,W,0.035,,100324,,,D*69
$GPVTG,,T,,M,0.035,N,0.065,K,D*23
$GPGGA,000935.00,4047.04886,N,07412.29094,W,2,09,1.25,42.2,M,-34.4,M,,0000*54
$GPGSA,A,3,05,29,11,25,12,20,09,46,06,,,,2.02,1.25,1.58*0D
$GPGSV,3,1,12,05,42,228,43,06,39,072,31,09,25,056,33,11,69,025,37*7E
$GPGSV,3,2,12,12,35,244,28,13,03,172,16,19,20,135,18,20,80,254,36*7C
$GPGSV,3,3,12,25,29,281,38,29,15,314,30,46,17,245,36,48,20,242,*74
$GPGLL,4047.04886,N,07412.29094,W,000935.00,A,D*72
$GPRMC,000936.00,A,4047.04880,N,07412.29085,W,0.017,,100324,,,D*6C
$GPVTG,,T,,M,0.017,N,0.032,K,D*21
$GPGGA,000936.00,4047.04880,N,07412.29085,W,2,09,1.25,42.3,M,-34.4,M,,0000*50
$GPGSA,A,3,05,29,11,25,12,20,09,46,06,,,,2.02,1.25,1.58*0D
$GPGSV,3,1,12,05,42,228,42,06,39,072,31,09,25,056,33,11,69,025,37*7F
$GPGSV,3,2,12,12,35,244,31,13,03,172,16,19,20,135,18,20,80,254,36*74
$GPGSV,3,3,12,25,29,281,37,29,15,314,30,46,17,245,36,48,20,242,*7B
$GPGLL,4047.04880,N,07412.29085,W,000936.00,A,D*77
$GPRMC,000937.00,A,4047.04877,N,07412.29077,W,0.068,,100324,,,D*60
$GPVTG,,T,,M,0.068,N,0.126,K,D*2D
$GPGGA,000937.00,4047.04877,N,07412.29077,W,2,10,1.25,42.4,M,-34.4,M,,0000*5B
$GPGSA,A,3,19,05,29,11,25,12,20,09,46,06,,,2.02,1.25,1.58*05
$GPGSV,3,1,12,05,42,228,42,06,39,072,31,09,25,056,32,11,69,025,37*7E
$GPGSV,3,2,12,12,35,244,32,13,03,172,17,19,20,135,17,20,80,254,35*7A
$GPGSV,3,3,12,25,29,281,37,29,15,314,30,46,17,245,36,48,20,242,*7B
$GPGLL,4047.04877,N,07412.29077,W,000937.00,A,D*73
$GPRMC,000938.00,A,4047.04872,N,07412.29072,W,0.063,,100324,,,D*64
$GPVTG,,T,,M,0.063,N,0.117,K,D*24
$GPGGA,000938.00,4047.04872,N,07412.29072,W,2,10,1.25,42.5,M,-34.4,M,,0000*55
$GPGSA,A,3,19,05,29,11,25,12,20,09,46,06,,,2.02,1.25,1.58*05
$GPGSV,3,1,12,05,42,228,42,06,39,072,31,09,25,056,31,11,69,025,37*7D
$GPGSV,3,2,12,12,35,244,32,13,03,172,17,19,20,135,18,20,80,254,35*75
$GPGSV,3,3,12,25,29,281,37,29,15,314,30,46,17,245,35,48,20,242,*78
$GPGLL,4047.04872,N,07412.29072,W,000938.00,A,D*7C
$GPRMC,000939.00,A,4047.04869,N,07412.29070,W,0.070,,100324,,,D*6F
$GPVTG,,T,,M,0.070,N,0.129,K,D*2B
$GPGGA,000939.00,4047.04869,N,07412.29070,W,2,10,1.25,42.5,M,-34.4,M,,0000*5C
$GPGSA,A,3,19,05,29,11,25,12,20,09,46,06,,,2.02,1.25,1.58*05
$GPGSV,3,1,12,05,42,228,42,06,39,072,32,09,25,056,31,11,69,025,38*71
$GPGSV,3,2,12,12,35,244,32,13,03,172,,19,20,135,19,20,80,254,34*73
$GPGSV,3,3,12,25,29,281,36,29,15,314,31,46,17,245,36,48,20,242,*7B
$GPGLL,4047.04869,N,07412.29070,W,000939.00,A,D*75
$GPRMC,000940.00,A,4047.04865,N,07412.29069,W,0.022,,100324,,,D*62
$GPVTG,,T,,M,0.022,N,0.041,K,D*23
$GPGGA,000940.00,4047.04865,N,07412.29069,W,2,10,1.25,42.5,M,-34.4,M,,0000*56
$GPGSA,A,3,19,05,29,11,25,12,20,09,46,06,,,2.02,1.25,1.58*05
$GPGSV,3,1,12,05,42,228,42,06,39,072,32,09,25,056,32,11,69,025,38*72
$GPGSV,3,2,12,12,35,244,33,13,03,172,,19,20,135,20,20,80,254,33*7F
$GPGSV,3,3,12,25,29,281,36,29,15,314,31,46,17,245,36,48,20,242,*7B
$GPGLL,4047.04865,N,07412.29069,W,000940.00,A,D*7F
$GPRMC,000941.00,A,4047.04859,N,07412.29067,W,0.017,,100324,,,D*64
$GPVTG,,T,,M,0.017,N,0.031,K,D*22
$GPGGA,000941.00,4047.04859,N,07412.29067,W,2,10,1.25,42.5,M,-34.4,M,,0000*56
$GPGSA,A,3,19,05,29,11,25,12,20,09,46,06,,,2.02,1.25,1.58*05
$GPGSV,3,1,12,05,42,228,42,06,39,072,32,09,25,056,32,11,69,025,38*72
$GPGSV,3,2,12,12,35,244,33,13,03,172,,19,20,135,20,20,80,254,33*7F
$GPGSV,3,3,12,25,29,281,36,29,15,314,31,46,17,245,36,48,20,242,*7B
$GPGLL,4047.04859,N,07412.29067,W,000941.00,A,D*7F
$GPRMC,000942.00,A,4047.04855,N,07412.29063,W,0.053,,100324,,,D*6F
$GPVTG,,T,,M,0.053,N,0.098,K,D*21
$GPGGA,000942.00,4047.04855,N,07412.29063,W,2,10,0.89,42.4,M,-34.4,M,,0000*5B
$GPGSA,A,3,19,05,29,11,25,12,20,09,46,06,,,1.61,0.89,1.34*0E
$GPGSV,3,1,12,05,42,228,42,06,39,073,32,09,25,056,32,11,69,025,38*73
$GPGSV,3,2,12,12,35,244,34,13,03,172,,19,20,135,22,20,80,254,33*7A
$GPGSV,3,3,12,25,29,281,36,29,15,314,31,46,17,245,36,48,20,242,*7B
$GPGLL,4047.04855,N,07412.29063,W,000942.00,A,D*74
$GPRMC,000943.00,A,4047.04852,N,07412.29060,W,0.021,,100324,,,D*6F
$GPVTG,,T,,M,0.021,N,0.039,K,D*2F
$GPGGA,000943.00,4047.04852,N,07412.29060,W,2,10,0.89,42.4,M,-34.4,M,,0000*5E
$GPGSA,A,3,19,05,29,11,25,12,20,09,46,06,,,1.61,0.89,1.34*0E
$GPGSV,3,1,12,05,42,228,42,06,39,073,32,09,25,056,32,11,69,025,38*73
$GPGSV,3,2,12,12,35,244,33,13,03,172,,19,20,135,24,20,80,254,33*7B
$GPGSV,3,3,12,25,29,281,36,29,15,314,31,46,17,245,36,48,20,242,*7B
$GPGLL,4047.04852,N,07412.29060,W,000943.00,A,D*71
$GPRMC,000944.00,A,4047.04847,N,07412.29054,W,0.081,,100324,,,D*61
$GPVTG,,T,,M,0.081,N,0.151,K,D*2A
$GPGGA,000944.00,4047.04847,N,07412.29054,W,2,10,0.89,42.4,M,-34.4,M,,0000*5A
$GPGSA,A,3,19,05,29,11,25,12,20,09,46,06,,,1.61,0.89,1.34*0E
$GPGSV,3,1,12,05,42,228,42,06,39,073,32,09,25,056,32,11,69,025,38*73
$GPGSV,3,2,12,12,35,244,35,13,03,172,,19,20,135,25,20,80,254,33*7C
$GPGSV,3,3,12,25,29,281,36,29,15,314,30,46,17,245,36,48,20,242,*7A
$GPGLL,4047.04847,N,07412.29054,W,000944.00,A,D*75
$GPRMC,000945.00,A,4047.04843,N,07412.29050,W,0.014,,100324,,,D*6C
$GPVTG,,T,,M,0.014,N,0.025,K,D*24
$GPGGA,000945.00,4047.04843,N,07412.29050,W,2,10,1.11,42.4,M,-34.4,M,,0000*5B
$GPGSA,A,3,19,05,29,11,25,12,20,09,46,06,,,1.90,1.11,1.54*06
$GPGSV,3,1,12,05,42,228,41,06,39,073,32,09,25,055,30,11,69,025,37*7E
$GPGSV,3,2,12,12,35,244,34,13,03,172,,19,20,135,24,20,80,254,33*7C
$GPGSV,3,3,12,25,29,281,36,29,15,314,30,46,17,245,36,48,20,242,*7A
$GPGLL,4047.04843,N,07412.29050,W,000945.00,A,D*74
$GPRMC,000946.00,A,4047.04836,N,07412.29046,W,0.045,,100324,,,D*6E
$GPVTG,,T,,M,0.045,N,0.084,K,D*2B
$GPGGA,000946.00,4047.04836,N,07412.29046,W,2,10,0.89,42.3,M,-34.4,M,,0000*5A
$GPGSA,A,3,19,05,29,11,25,12,20,09,46,06,,,1.61,0.89,1.34*0E
$GPGSV,3,1,12,05,42,228,41,06,39,073,32,09,25,055,31,11,69,025,38*70
$GPGSV,3,2,12,12,35,244,35,13,03,172,,19,20,135,25,20,80,254,33*7C
$GPGSV,3,3,12,25,29,281,36,29,15,314,30,46,17,245,36,48,20,242,*7A
$GPGLL,4047.04836,N,07412.29046,W,000946.00,A,D*72
$GPRMC,000947.00,A,4047.04831,N,07412.29043,W,0.013,,100324,,,D*6E
$GPVTG,,T,,M,0.013,N,0.025,K,D*23
$GPGGA,000947.00,4047.04831,N,07412.29043,W,2,10,0.89,42.3,M,-34.4,M,,0000*59
$GPGSA,A,3,19,05,29,11,25,12,20,09,46,06,,,1.61,0.89,1.34*0E
$GPGSV,3,1,12,05,42,228,41,06,39,073,33,09,25,055,31,11,69,026,38*72
$GPGSV,3,2,12,12,35,244,36,13,03,172,,19,20,135,26,20,80,254,33*7C
$GPGSV,3,3,12,25,29,281,36,29,15,314,30,46,17,245,36,48,20,242,*7A
$GPGLL,4047.04831,N,07412.29043,W,000947.00,A,D*71
$GPRMC,000948.00,A,4047.04830,N,07412.29046,W,0.049,,100324,,,D*6A
$GPVTG,,T,,M,0.049,N,0.091,K,D*23
$GPGGA,000948.00,4047.04830,N,07412.29046,W,2,10,0.89,42.2,M,-34.4,M,,0000*53
$GPGSA,A,3,19,05,29,11,25,12,20,09,46,06,,,1.61,0.89,1.34*0E
$GPGSV,3,1,12,05,42,228,41,06,39,073,32,09,25,055,30,11,69,026,38*72
$GPGSV,3,2,12,12,35,243,35,13,03,172,,19,20,135,26,20,80,254,33*78
$GPGSV,3,3,12,25,29,281,36,29,15,314,31,46,17,245,36,48,20,242,*7B
$GPGLL,4047.04830,N,07412.29046,W,000948.00,A,D*7A
$GPRMC,000949.00,A,4047.04825,N,07412.29045,W,0.052,,100324,,,D*66
$GPVTG,,T,,M,0.052,N,0.097,K,D*2F
$GPGGA,000949.00,4047.04825,N,07412.29045,W,2,10,0.89,42.2,M,-34.4,M,,0000*55
